header: 
  seq: 0
  stamp: 
    secs: 0
    nsecs: 700000000
  frame_id: "imu_link"
orientation: 
  x: -0.3590990435546133
  y: -0.011317694729615631
  z: -0.0043554706261232186
  w: 0.9332206687487125
orientation_covariance: [0.0, 0.0, 0.0, 0.0, 0.0, 0.0, 0.0, 0.0, 0.0]
angular_velocity: 
  x: -1.1454279754947225
  y: 0.09427964402257402
  z: 0.08377079000418469
angular_velocity_covariance: [0.0, 0.0, 0.0, 0.0, 0.0, 0.0, 0.0, 0.0, 0.0]
linear_acceleration: 
  x: -3.6192107987474054
  y: -7.069926194188907
  z: 5.677807103788485
linear_acceleration_covariance: [0.0, 0.0, 0.0, 0.0, 0.0, 0.0, 0.0, 0.0, 0.0]
---
header: 
  seq: 1
  stamp: 
    secs: 0
    nsecs: 800000000
  frame_id: "imu_link"
orientation: 
  x: -0.37684138835333464
  y: -0.010787532822435855
  z: -0.004386072904048457
  w: 0.9262045991701924
orientation_covariance: [0.0, 0.0, 0.0, 0.0, 0.0, 0.0, 0.0, 0.0, 0.0]
angular_velocity: 
  x: -0.31067298001827487
  y: -0.014198816542372929
  z: -0.004269786963177943
angular_velocity_covariance: [0.0, 0.0, 0.0, 0.0, 0.0, 0.0, 0.0, 0.0, 0.0]
linear_acceleration: 
  x: 2.7523150524371047
  y: -4.952734196306246
  z: 7.246394485340182
linear_acceleration_covariance: [0.0, 0.0, 0.0, 0.0, 0.0, 0.0, 0.0, 0.0, 0.0]
---
header: 
  seq: 2
  stamp: 
    secs: 0
    nsecs: 900000000
  frame_id: "imu_link"
orientation: 
  x: -0.32700997437325646
  y: -0.014093358542038945
  z: -0.0048774386810788726
  w: 0.9449032037713281
orientation_covariance: [0.0, 0.0, 0.0, 0.0, 0.0, 0.0, 0.0, 0.0, 0.0]
angular_velocity: 
  x: 1.164417821476927
  y: -0.04512718449442726
  z: -0.035394139339398674
angular_velocity_covariance: [0.0, 0.0, 0.0, 0.0, 0.0, 0.0, 0.0, 0.0, 0.0]
linear_acceleration: 
  x: -0.45526478754985045
  y: -0.5365571091735664
  z: 0.24741357320519786
linear_acceleration_covariance: [0.0, 0.0, 0.0, 0.0, 0.0, 0.0, 0.0, 0.0, 0.0]
---
header: 
  seq: 3
  stamp: 
    secs: 1
    nsecs:         0
  frame_id: "imu_link"
orientation: 
  x: -0.2705962352957002
  y: -0.01793636503492524
  z: -0.005045137213461517
  w: 0.9625126029531381
orientation_covariance: [0.0, 0.0, 0.0, 0.0, 0.0, 0.0, 0.0, 0.0, 0.0]
angular_velocity: 
  x: 1.3446403758909478
  y: 0.06857528963826011
  z: 0.0401583480448762
angular_velocity_covariance: [0.0, 0.0, 0.0, 0.0, 0.0, 0.0, 0.0, 0.0, 0.0]
linear_acceleration: 
  x: 0.30937133715232995
  y: -6.108087071383419
  z: 8.556715164433284
linear_acceleration_covariance: [0.0, 0.0, 0.0, 0.0, 0.0, 0.0, 0.0, 0.0, 0.0]
---
header: 
  seq: 4
  stamp: 
    secs: 1
    nsecs: 100000000
  frame_id: "imu_link"
orientation: 
  x: -0.2136294319245689
  y: -0.021660114302225496
  z: -0.00474552858792871
  w: 0.9766630868536099
orientation_covariance: [0.0, 0.0, 0.0, 0.0, 0.0, 0.0, 0.0, 0.0, 0.0]
angular_velocity: 
  x: 1.2507739563972389
  y: -0.111074481917312
  z: -0.05588301501444244
angular_velocity_covariance: [0.0, 0.0, 0.0, 0.0, 0.0, 0.0, 0.0, 0.0, 0.0]
linear_acceleration: 
  x: 0.853547641454089
  y: -3.2092584720850215
  z: 8.430505867846996
linear_acceleration_covariance: [0.0, 0.0, 0.0, 0.0, 0.0, 0.0, 0.0, 0.0, 0.0]
---
header: 
  seq: 5
  stamp: 
    secs: 1
    nsecs: 200000000
  frame_id: "imu_link"
orientation: 
  x: -0.1568212725692779
  y: -0.0255852255909125
  z: -0.004104847631463971
  w: 0.9872870073727987
orientation_covariance: [0.0, 0.0, 0.0, 0.0, 0.0, 0.0, 0.0, 0.0, 0.0]
angular_velocity: 
  x: 0.005851107726788212
  y: -0.9241388551018423
  z: -0.4178759769351441
angular_velocity_covariance: [0.0, 0.0, 0.0, 0.0, 0.0, 0.0, 0.0, 0.0, 0.0]
linear_acceleration: 
  x: -0.3318889967425198
  y: 20.750232453493528
  z: -23.201401829639234
linear_acceleration_covariance: [0.0, 0.0, 0.0, 0.0, 0.0, 0.0, 0.0, 0.0, 0.0]
---
header: 
  seq: 6
  stamp: 
    secs: 1
    nsecs: 300000000
  frame_id: "imu_link"
orientation: 
  x: -0.22553998870398365
  y: -0.02085332241466724
  z: -0.004829024646633029
  w: 0.9739987335518662
orientation_covariance: [0.0, 0.0, 0.0, 0.0, 0.0, 0.0, 0.0, 0.0, 0.0]
angular_velocity: 
  x: -1.5477429008449828
  y: 0.08564428829948659
  z: 0.04182850863176474
angular_velocity_covariance: [0.0, 0.0, 0.0, 0.0, 0.0, 0.0, 0.0, 0.0, 0.0]
linear_acceleration: 
  x: -0.18049087024941618
  y: -0.21378774223874775
  z: -0.06216770704008212
linear_acceleration_covariance: [0.0, 0.0, 0.0, 0.0, 0.0, 0.0, 0.0, 0.0, 0.0]
---
header: 
  seq: 7
  stamp: 
    secs: 1
    nsecs: 400000000
  frame_id: "imu_link"
orientation: 
  x: -0.2972904979532286
  y: -0.01616229860681536
  z: -0.005041386997958177
  w: 0.9546369594498226
orientation_covariance: [0.0, 0.0, 0.0, 0.0, 0.0, 0.0, 0.0, 0.0, 0.0]
angular_velocity: 
  x: -1.078437817832673
  y: 0.015669066743041783
  z: 0.013920891755535724
angular_velocity_covariance: [0.0, 0.0, 0.0, 0.0, 0.0, 0.0, 0.0, 0.0, 0.0]
linear_acceleration: 
  x: -0.042647145634044537
  y: -2.47225921393747
  z: 10.329020537716659
linear_acceleration_covariance: [0.0, 0.0, 0.0, 0.0, 0.0, 0.0, 0.0, 0.0, 0.0]
---
header: 
  seq: 8
  stamp: 
    secs: 1
    nsecs: 500000000
  frame_id: "imu_link"
orientation: 
  x: -0.3730956628487728
  y: -0.010999204095720052
  z: -0.0044306256884625505
  w: 0.9277170977343816
orientation_covariance: [0.0, 0.0, 0.0, 0.0, 0.0, 0.0, 0.0, 0.0, 0.0]
angular_velocity: 
  x: -1.6105600951504764
  y: 0.03845020963206052
  z: 0.021236498241880133
angular_velocity_covariance: [0.0, 0.0, 0.0, 0.0, 0.0, 0.0, 0.0, 0.0, 0.0]
linear_acceleration: 
  x: 6.710565328695854
  y: -3.402878471987836
  z: 6.782924116694
linear_acceleration_covariance: [0.0, 0.0, 0.0, 0.0, 0.0, 0.0, 0.0, 0.0, 0.0]
---
header: 
  seq: 9
  stamp: 
    secs: 1
    nsecs: 600000000
  frame_id: "imu_link"
orientation: 
  x: -0.32533818085114774
  y: -0.014098260744047353
  z: -0.004850504589532315
  w: 0.945480184736669
orientation_covariance: [0.0, 0.0, 0.0, 0.0, 0.0, 0.0, 0.0, 0.0, 0.0]
angular_velocity: 
  x: 1.102828091066191
  y: 0.1684509851190313
  z: 0.13001335549601026
angular_velocity_covariance: [0.0, 0.0, 0.0, 0.0, 0.0, 0.0, 0.0, 0.0, 0.0]
linear_acceleration: 
  x: -11.525613733279286
  y: 3.201740538215608
  z: -6.104687112368814
linear_acceleration_covariance: [0.0, 0.0, 0.0, 0.0, 0.0, 0.0, 0.0, 0.0, 0.0]
---
header: 
  seq: 10
  stamp: 
    secs: 1
    nsecs: 700000000
  frame_id: "imu_link"
orientation: 
  x: -0.26732608675364616
  y: -0.01796140345031893
  z: -0.004975863078924557
  w: 0.9634258622819385
orientation_covariance: [0.0, 0.0, 0.0, 0.0, 0.0, 0.0, 0.0, 0.0, 0.0]
angular_velocity: 
  x: 4.17126614446353
  y: -0.14261503414423657
  z: -0.13743598530957815
angular_velocity_covariance: [0.0, 0.0, 0.0, 0.0, 0.0, 0.0, 0.0, 0.0, 0.0]
linear_acceleration: 
  x: 1.2664158393654092
  y: -87.73609070566835
  z: 113.07094620661746
linear_acceleration_covariance: [0.0, 0.0, 0.0, 0.0, 0.0, 0.0, 0.0, 0.0, 0.0]
---
header: 
  seq: 11
  stamp: 
    secs: 1
    nsecs: 800000000
  frame_id: "imu_link"
orientation: 
  x: -0.21342364673185743
  y: -0.021507566302274378
  z: -0.0047188250484961084
  w: 0.97671157682173
orientation_covariance: [0.0, 0.0, 0.0, 0.0, 0.0, 0.0, 0.0, 0.0, 0.0]
angular_velocity: 
  x: 1.6830524981258157
  y: 0.5580282606379807
  z: 0.27128872933800546
angular_velocity_covariance: [0.0, 0.0, 0.0, 0.0, 0.0, 0.0, 0.0, 0.0, 0.0]
linear_acceleration: 
  x: -2.0635336288871087
  y: -27.475181734589242
  z: 45.281628296016706
linear_acceleration_covariance: [0.0, 0.0, 0.0, 0.0, 0.0, 0.0, 0.0, 0.0, 0.0]
---
header: 
  seq: 12
  stamp: 
    secs: 1
    nsecs: 900000000
  frame_id: "imu_link"
orientation: 
  x: -0.15574263757909268
  y: -0.025074731743430008
  z: -0.0039298860559960685
  w: 0.9874715411916889
orientation_covariance: [0.0, 0.0, 0.0, 0.0, 0.0, 0.0, 0.0, 0.0, 0.0]
angular_velocity: 
  x: 1.2693486188357481
  y: 1.2765918127211189
  z: 0.5860294827785403
angular_velocity_covariance: [0.0, 0.0, 0.0, 0.0, 0.0, 0.0, 0.0, 0.0, 0.0]
linear_acceleration: 
  x: 1.6681147726297967
  y: -2.917374638605028
  z: 8.438484344173037
linear_acceleration_covariance: [0.0, 0.0, 0.0, 0.0, 0.0, 0.0, 0.0, 0.0, 0.0]
---
header: 
  seq: 13
  stamp: 
    secs: 2
    nsecs:         0
  frame_id: "imu_link"
orientation: 
  x: -0.22704767110604424
  y: -0.0207530204997019
  z: -0.004839653204817415
  w: 0.9736504737031241
orientation_covariance: [0.0, 0.0, 0.0, 0.0, 0.0, 0.0, 0.0, 0.0, 0.0]
angular_velocity: 
  x: -1.5477524605789348
  y: 0.08556607810401205
  z: 0.042116628615764026
angular_velocity_covariance: [0.0, 0.0, 0.0, 0.0, 0.0, 0.0, 0.0, 0.0, 0.0]
linear_acceleration: 
  x: -0.18028636219792754
  y: -0.2146971466340748
  z: -0.061734051621535
linear_acceleration_covariance: [0.0, 0.0, 0.0, 0.0, 0.0, 0.0, 0.0, 0.0, 0.0]
---
header: 
  seq: 14
  stamp: 
    secs: 2
    nsecs: 100000000
  frame_id: "imu_link"
orientation: 
  x: -0.2988534993143283
  y: -0.01603684660346467
  z: -0.005024326390326562
  w: 0.9541510161619707
orientation_covariance: [0.0, 0.0, 0.0, 0.0, 0.0, 0.0, 0.0, 0.0, 0.0]
angular_velocity: 
  x: -2.428744468807959
  y: 0.06541090889591387
  z: 0.04575669131516537
angular_velocity_covariance: [0.0, 0.0, 0.0, 0.0, 0.0, 0.0, 0.0, 0.0, 0.0]
linear_acceleration: 
  x: 0.3318149322072256
  y: 18.989214253876348
  z: -16.53851252143869
linear_acceleration_covariance: [0.0, 0.0, 0.0, 0.0, 0.0, 0.0, 0.0, 0.0, 0.0]
---
header: 
  seq: 15
  stamp: 
    secs: 2
    nsecs: 200000000
  frame_id: "imu_link"
orientation: 
  x: -0.37428718178620296
  y: -0.01089223722838522
  z: -0.004399327672539889
  w: 0.9272384324620783
orientation_covariance: [0.0, 0.0, 0.0, 0.0, 0.0, 0.0, 0.0, 0.0, 0.0]
angular_velocity: 
  x: -2.4189420017284693
  y: 0.12137647124805477
  z: 0.11694875351458796
angular_velocity_covariance: [0.0, 0.0, 0.0, 0.0, 0.0, 0.0, 0.0, 0.0, 0.0]
linear_acceleration: 
  x: 1.874565808602038
  y: 16.20588407265079
  z: -17.283363028039957
linear_acceleration_covariance: [0.0, 0.0, 0.0, 0.0, 0.0, 0.0, 0.0, 0.0, 0.0]
---
header: 
  seq: 16
  stamp: 
    secs: 2
    nsecs: 300000000
  frame_id: "imu_link"
orientation: 
  x: -0.32698724232621834
  y: -0.014185881656134321
  z: -0.0049082946694942835
  w: 0.9449095262304061
orientation_covariance: [0.0, 0.0, 0.0, 0.0, 0.0, 0.0, 0.0, 0.0, 0.0]
angular_velocity: 
  x: 1.2159793077112568
  y: -0.208770517341694
  z: -0.16223722038953536
angular_velocity_covariance: [0.0, 0.0, 0.0, 0.0, 0.0, 0.0, 0.0, 0.0, 0.0]
linear_acceleration: 
  x: 5.048802014070657
  y: -4.428629073009605
  z: 5.327733093137203
linear_acceleration_covariance: [0.0, 0.0, 0.0, 0.0, 0.0, 0.0, 0.0, 0.0, 0.0]
---
header: 
  seq: 17
  stamp: 
    secs: 2
    nsecs: 400000000
  frame_id: "imu_link"
orientation: 
  x: -0.271977222286876
  y: -0.017766850655131918
  z: -0.005022444476023173
  w: 0.9621265533319401
orientation_covariance: [0.0, 0.0, 0.0, 0.0, 0.0, 0.0, 0.0, 0.0, 0.0]
angular_velocity: 
  x: 1.1591819142387887
  y: -0.06722081907694369
  z: -0.04098687255965974
angular_velocity_covariance: [0.0, 0.0, 0.0, 0.0, 0.0, 0.0, 0.0, 0.0, 0.0]
linear_acceleration: 
  x: 0.2282434881558335
  y: -0.25090397544701837
  z: 0.2280507499039519
linear_acceleration_covariance: [0.0, 0.0, 0.0, 0.0, 0.0, 0.0, 0.0, 0.0, 0.0]
---
header: 
  seq: 18
  stamp: 
    secs: 2
    nsecs: 500000000
  frame_id: "imu_link"
orientation: 
  x: -0.2124752728455277
  y: -0.021615672727266815
  z: -0.004720481586441629
  w: 0.9769159319897277
orientation_covariance: [0.0, 0.0, 0.0, 0.0, 0.0, 0.0, 0.0, 0.0, 0.0]
angular_velocity: 
  x: 1.9520609449328743
  y: 0.4949993740965361
  z: 0.22938034151640094
angular_velocity_covariance: [0.0, 0.0, 0.0, 0.0, 0.0, 0.0, 0.0, 0.0, 0.0]
linear_acceleration: 
  x: -1.4754593816523842
  y: -25.42393774131626
  z: 40.99219702630978
linear_acceleration_covariance: [0.0, 0.0, 0.0, 0.0, 0.0, 0.0, 0.0, 0.0, 0.0]
---
header: 
  seq: 19
  stamp: 
    secs: 2
    nsecs: 600000000
  frame_id: "imu_link"
orientation: 
  x: -0.15498506612878504
  y: -0.02560239451837676
  z: -0.004069994188427381
  w: 0.9875766207334437
orientation_covariance: [0.0, 0.0, 0.0, 0.0, 0.0, 0.0, 0.0, 0.0, 0.0]
angular_velocity: 
  x: 1.2477444904062884
  y: 1.2645316404484468
  z: 0.5761121832707186
angular_velocity_covariance: [0.0, 0.0, 0.0, 0.0, 0.0, 0.0, 0.0, 0.0, 0.0]
linear_acceleration: 
  x: 1.60657040737514
  y: -4.457473031923074
  z: 7.888921147070269
linear_acceleration_covariance: [0.0, 0.0, 0.0, 0.0, 0.0, 0.0, 0.0, 0.0, 0.0]
---
header: 
  seq: 20
  stamp: 
    secs: 2
    nsecs: 700000000
  frame_id: "imu_link"
orientation: 
  x: -0.22629389813216474
  y: -0.020803179402385654
  z: -0.004834378820536327
  w: 0.9738248960548919
orientation_covariance: [0.0, 0.0, 0.0, 0.0, 0.0, 0.0, 0.0, 0.0, 0.0]
angular_velocity: 
  x: -1.5477437734502708
  y: 0.08557086381119196
  z: 0.04195570304286678
angular_velocity_covariance: [0.0, 0.0, 0.0, 0.0, 0.0, 0.0, 0.0, 0.0, 0.0]
linear_acceleration: 
  x: -0.1803074676446753
  y: -0.2152525483945844
  z: -0.06042962228693938
linear_acceleration_covariance: [0.0, 0.0, 0.0, 0.0, 0.0, 0.0, 0.0, 0.0, 0.0]
---
header: 
  seq: 21
  stamp: 
    secs: 2
    nsecs: 800000000
  frame_id: "imu_link"
orientation: 
  x: -0.2983085083786194
  y: -0.015878049033002415
  z: -0.004975722313535819
  w: 0.9543244540381889
orientation_covariance: [0.0, 0.0, 0.0, 0.0, 0.0, 0.0, 0.0, 0.0, 0.0]
angular_velocity: 
  x: -1.6492504954073655
  y: 0.048830584315141944
  z: 0.043590438539637406
angular_velocity_covariance: [0.0, 0.0, 0.0, 0.0, 0.0, 0.0, 0.0, 0.0, 0.0]
linear_acceleration: 
  x: -0.18793266043619605
  y: -6.432237966401573
  z: 0.4239163586130008
linear_acceleration_covariance: [0.0, 0.0, 0.0, 0.0, 0.0, 0.0, 0.0, 0.0, 0.0]
---
header: 
  seq: 22
  stamp: 
    secs: 2
    nsecs: 900000000
  frame_id: "imu_link"
orientation: 
  x: -0.3732512683853349
  y: -0.01098681881131842
  z: -0.00442554045691425
  w: 0.9276546744628683
orientation_covariance: [0.0, 0.0, 0.0, 0.0, 0.0, 0.0, 0.0, 0.0, 0.0]
angular_velocity: 
  x: -1.5275430631006628
  y: 0.1387457644346318
  z: 0.13488443074030138
angular_velocity_covariance: [0.0, 0.0, 0.0, 0.0, 0.0, 0.0, 0.0, 0.0, 0.0]
linear_acceleration: 
  x: -2.593331928471403
  y: -28.125854274916048
  z: 27.474253811745555
linear_acceleration_covariance: [0.0, 0.0, 0.0, 0.0, 0.0, 0.0, 0.0, 0.0, 0.0]
---
header: 
  seq: 23
  stamp: 
    secs: 3
    nsecs:         0
  frame_id: "imu_link"
orientation: 
  x: -0.32425871463976497
  y: -0.01417555356176357
  z: -0.004860206642569583
  w: 0.9458497333365256
orientation_covariance: [0.0, 0.0, 0.0, 0.0, 0.0, 0.0, 0.0, 0.0, 0.0]
angular_velocity: 
  x: 1.1114292969555297
  y: -0.009765590606903848
  z: -0.009733852133403553
angular_velocity_covariance: [0.0, 0.0, 0.0, 0.0, 0.0, 0.0, 0.0, 0.0, 0.0]
linear_acceleration: 
  x: -3.638133745050958
  y: 2.807941048527079
  z: -3.8335433182475223
linear_acceleration_covariance: [0.0, 0.0, 0.0, 0.0, 0.0, 0.0, 0.0, 0.0, 0.0]
---
header: 
  seq: 24
  stamp: 
    secs: 3
    nsecs: 100000000
  frame_id: "imu_link"
orientation: 
  x: -0.26692716020713264
  y: -0.01803526642450807
  z: -0.005174381964058589
  w: 0.9635340399176578
orientation_covariance: [0.0, 0.0, 0.0, 0.0, 0.0, 0.0, 0.0, 0.0, 0.0]
angular_velocity: 
  x: -2.246720324939486
  y: -0.8091924665005528
  z: -0.4044115359667591
angular_velocity_covariance: [0.0, 0.0, 0.0, 0.0, 0.0, 0.0, 0.0, 0.0, 0.0]
linear_acceleration: 
  x: 5.164159969325603
  y: 74.34829250432229
  z: -72.63923816158108
linear_acceleration_covariance: [0.0, 0.0, 0.0, 0.0, 0.0, 0.0, 0.0, 0.0, 0.0]
---
header: 
  seq: 25
  stamp: 
    secs: 3
    nsecs: 200000000
  frame_id: "imu_link"
orientation: 
  x: -0.21170221720284077
  y: -0.021675326404506968
  z: -0.004714525691904251
  w: 0.9770824554274627
orientation_covariance: [0.0, 0.0, 0.0, 0.0, 0.0, 0.0, 0.0, 0.0, 0.0]
angular_velocity: 
  x: 1.1691417308879903
  y: -0.09885977773919777
  z: -0.0968842941113725
angular_velocity_covariance: [0.0, 0.0, 0.0, 0.0, 0.0, 0.0, 0.0, 0.0, 0.0]
linear_acceleration: 
  x: -1.0946588814297804
  y: -30.14596660019485
  z: 51.49848880585788
linear_acceleration_covariance: [0.0, 0.0, 0.0, 0.0, 0.0, 0.0, 0.0, 0.0, 0.0]
---
header: 
  seq: 26
  stamp: 
    secs: 3
    nsecs: 300000000
  frame_id: "imu_link"
orientation: 
  x: -0.15550847844299573
  y: -0.025545988986365932
  z: -0.004074276498448656
  w: 0.9874957801682329
orientation_covariance: [0.0, 0.0, 0.0, 0.0, 0.0, 0.0, 0.0, 0.0, 0.0]
angular_velocity: 
  x: 1.2147249732843415
  y: -0.9890019559654414
  z: -0.4829434341731659
angular_velocity_covariance: [0.0, 0.0, 0.0, 0.0, 0.0, 0.0, 0.0, 0.0, 0.0]
linear_acceleration: 
  x: -0.09404670347990118
  y: -1.7586858360618032
  z: 9.324257570433945
linear_acceleration_covariance: [0.0, 0.0, 0.0, 0.0, 0.0, 0.0, 0.0, 0.0, 0.0]
---
header: 
  seq: 27
  stamp: 
    secs: 3
    nsecs: 400000000
  frame_id: "imu_link"
orientation: 
  x: -0.2270476705215724
  y: -0.020753049845537018
  z: -0.004839660110321519
  w: 0.9736504731795967
orientation_covariance: [0.0, 0.0, 0.0, 0.0, 0.0, 0.0, 0.0, 0.0, 0.0]
angular_velocity: 
  x: -1.5477342172161908
  y: 0.08549870830580969
  z: 0.04208676208312539
angular_velocity_covariance: [0.0, 0.0, 0.0, 0.0, 0.0, 0.0, 0.0, 0.0, 0.0]
linear_acceleration: 
  x: -0.18064702040710184
  y: -0.21681945759903343
  z: -0.05906593080907463
linear_acceleration_covariance: [0.0, 0.0, 0.0, 0.0, 0.0, 0.0, 0.0, 0.0, 0.0]
---
header: 
  seq: 28
  stamp: 
    secs: 3
    nsecs: 500000000
  frame_id: "imu_link"
orientation: 
  x: -0.2987137081098158
  y: -0.01601170677257681
  z: -0.005024827082562775
  w: 0.954195209035501
orientation_covariance: [0.0, 0.0, 0.0, 0.0, 0.0, 0.0, 0.0, 0.0, 0.0]
angular_velocity: 
  x: -1.17728354563825
  y: 0.020416660872993733
  z: 0.02745728774636064
angular_velocity_covariance: [0.0, 0.0, 0.0, 0.0, 0.0, 0.0, 0.0, 0.0, 0.0]
linear_acceleration: 
  x: 1.8322304784488308
  y: -0.8857417178566607
  z: 9.430189252386365
linear_acceleration_covariance: [0.0, 0.0, 0.0, 0.0, 0.0, 0.0, 0.0, 0.0, 0.0]
---
header: 
  seq: 29
  stamp: 
    secs: 3
    nsecs: 600000000
  frame_id: "imu_link"
orientation: 
  x: -0.3739410003507818
  y: -0.010980072521620712
  z: -0.004432026094957778
  w: 0.9273769047203894
orientation_covariance: [0.0, 0.0, 0.0, 0.0, 0.0, 0.0, 0.0, 0.0, 0.0]
angular_velocity: 
  x: -1.5548035158374776
  y: 0.021384209581875424
  z: 0.024687980688347166
angular_velocity_covariance: [0.0, 0.0, 0.0, 0.0, 0.0, 0.0, 0.0, 0.0, 0.0]
linear_acceleration: 
  x: 0.6240549626570564
  y: -5.453693181053421
  z: 7.683466740571431
linear_acceleration_covariance: [0.0, 0.0, 0.0, 0.0, 0.0, 0.0, 0.0, 0.0, 0.0]
---
header: 
  seq: 30
  stamp: 
    secs: 3
    nsecs: 700000000
  frame_id: "imu_link"
orientation: 
  x: -0.3264425856193717
  y: -0.014140944383328502
  z: -0.0048833845016990176
  w: 0.9450986321765021
orientation_covariance: [0.0, 0.0, 0.0, 0.0, 0.0, 0.0, 0.0, 0.0, 0.0]
angular_velocity: 
  x: 1.2038084844547114
  y: -0.0712260803030246
  z: -0.05329360027291117
angular_velocity_covariance: [0.0, 0.0, 0.0, 0.0, 0.0, 0.0, 0.0, 0.0, 0.0]
linear_acceleration: 
  x: -2.7713705825598645
  y: -2.335523907066565
  z: 1.415815739758992
linear_acceleration_covariance: [0.0, 0.0, 0.0, 0.0, 0.0, 0.0, 0.0, 0.0, 0.0]
---
header: 
  seq: 31
  stamp: 
    secs: 3
    nsecs: 800000000
  frame_id: "imu_link"
orientation: 
  x: -0.2715891389764084
  y: -0.017786660275270844
  z: -0.0050202290292593234
  w: 0.9622358191248125
orientation_covariance: [0.0, 0.0, 0.0, 0.0, 0.0, 0.0, 0.0, 0.0, 0.0]
angular_velocity: 
  x: 1.15176688688306
  y: -0.050520058679581877
  z: -0.030811308832947533
angular_velocity_covariance: [0.0, 0.0, 0.0, 0.0, 0.0, 0.0, 0.0, 0.0, 0.0]
linear_acceleration: 
  x: 0.09216542704597919
  y: -0.3639200170071346
  z: 0.3086543650941156
linear_acceleration_covariance: [0.0, 0.0, 0.0, 0.0, 0.0, 0.0, 0.0, 0.0, 0.0]
---
header: 
  seq: 32
  stamp: 
    secs: 3
    nsecs: 900000000
  frame_id: "imu_link"
orientation: 
  x: -0.21205238720758915
  y: -0.02177111424566691
  z: -0.004737043642742866
  w: 0.9770042804827374
orientation_covariance: [0.0, 0.0, 0.0, 0.0, 0.0, 0.0, 0.0, 0.0, 0.0]
angular_velocity: 
  x: 1.8953894254586652
  y: -0.10535508748374098
  z: -0.035017179182229755
angular_velocity_covariance: [0.0, 0.0, 0.0, 0.0, 0.0, 0.0, 0.0, 0.0, 0.0]
linear_acceleration: 
  x: 1.4743069198170784
  y: -20.893296948804693
  z: 41.44238029738749
linear_acceleration_covariance: [0.0, 0.0, 0.0, 0.0, 0.0, 0.0, 0.0, 0.0, 0.0]
---
header: 
  seq: 33
  stamp: 
    secs: 4
    nsecs:         0
  frame_id: "imu_link"
orientation: 
  x: -0.1556740364753871
  y: -0.025117703992555036
  z: -0.003938671836055741
  w: 0.9874812313040537
orientation_covariance: [0.0, 0.0, 0.0, 0.0, 0.0, 0.0, 0.0, 0.0, 0.0]
angular_velocity: 
  x: 1.2277654525177482
  y: 1.2395535098922748
  z: 0.568915342186131
angular_velocity_covariance: [0.0, 0.0, 0.0, 0.0, 0.0, 0.0, 0.0, 0.0, 0.0]
linear_acceleration: 
  x: 1.648368288737685
  y: -3.0245064248355327
  z: 8.598525393188025
linear_acceleration_covariance: [0.0, 0.0, 0.0, 0.0, 0.0, 0.0, 0.0, 0.0, 0.0]
---
header: 
  seq: 34
  stamp: 
    secs: 4
    nsecs: 101000000
  frame_id: "imu_link"
orientation: 
  x: -0.22704766902038556
  y: -0.020753051135720478
  z: -0.004839660086832977
  w: 0.9736504735022786
orientation_covariance: [0.0, 0.0, 0.0, 0.0, 0.0, 0.0, 0.0, 0.0, 0.0]
angular_velocity: 
  x: -1.5477337029030616
  y: 0.08549739820598552
  z: 0.04208523701587794
angular_velocity_covariance: [0.0, 0.0, 0.0, 0.0, 0.0, 0.0, 0.0, 0.0, 0.0]
linear_acceleration: 
  x: -0.18068397725773472
  y: -0.2168656001778544
  z: -0.05906379652178373
linear_acceleration_covariance: [0.0, 0.0, 0.0, 0.0, 0.0, 0.0, 0.0, 0.0, 0.0]
---
header: 
  seq: 35
  stamp: 
    secs: 4
    nsecs: 201000000
  frame_id: "imu_link"
orientation: 
  x: -0.2992042067967638
  y: -0.016021165265547924
  z: -0.0050425920726727596
  w: 0.954041265964865
orientation_covariance: [0.0, 0.0, 0.0, 0.0, 0.0, 0.0, 0.0, 0.0, 0.0]
angular_velocity: 
  x: -1.093106931776907
  y: 0.28670052727761197
  z: 0.2003774894304625
angular_velocity_covariance: [0.0, 0.0, 0.0, 0.0, 0.0, 0.0, 0.0, 0.0, 0.0]
linear_acceleration: 
  x: -4.370885845070026
  y: -7.566109774647915
  z: 8.294698030144577
linear_acceleration_covariance: [0.0, 0.0, 0.0, 0.0, 0.0, 0.0, 0.0, 0.0, 0.0]
---
header: 
  seq: 36
  stamp: 
    secs: 4
    nsecs: 301000000
  frame_id: "imu_link"
orientation: 
  x: -0.3754806572241862
  y: -0.010781827466119174
  z: -0.004373927311943402
  w: 0.9267571942029119
orientation_covariance: [0.0, 0.0, 0.0, 0.0, 0.0, 0.0, 0.0, 0.0, 0.0]
angular_velocity: 
  x: -1.5373834866768998
  y: 0.16034336827960416
  z: 0.1580400783179235
angular_velocity_covariance: [0.0, 0.0, 0.0, 0.0, 0.0, 0.0, 0.0, 0.0, 0.0]
linear_acceleration: 
  x: -4.086277410597986
  y: -9.842619336430943
  z: 5.850691581796818
linear_acceleration_covariance: [0.0, 0.0, 0.0, 0.0, 0.0, 0.0, 0.0, 0.0, 0.0]
---
header: 
  seq: 37
  stamp: 
    secs: 4
    nsecs: 401000000
  frame_id: "imu_link"
orientation: 
  x: -0.32592054885172356
  y: -0.014050007124322887
  z: -0.004844036959388935
  w: 0.9452803438355913
orientation_covariance: [0.0, 0.0, 0.0, 0.0, 0.0, 0.0, 0.0, 0.0, 0.0]
angular_velocity: 
  x: 1.1062330755910004
  y: 0.11258127058235315
  z: 0.08616674224293183
angular_velocity_covariance: [0.0, 0.0, 0.0, 0.0, 0.0, 0.0, 0.0, 0.0, 0.0]
linear_acceleration: 
  x: -9.225770011933252
  y: 3.4447200346528346
  z: -5.77665739533636
linear_acceleration_covariance: [0.0, 0.0, 0.0, 0.0, 0.0, 0.0, 0.0, 0.0, 0.0]
---
header: 
  seq: 38
  stamp: 
    secs: 4
    nsecs: 501000000
  frame_id: "imu_link"
orientation: 
  x: -0.26779205720441684
  y: -0.017988528400319656
  z: -0.005181573679794147
  w: 0.9632948552953131
orientation_covariance: [0.0, 0.0, 0.0, 0.0, 0.0, 0.0, 0.0, 0.0, 0.0]
angular_velocity: 
  x: -2.24774835309442
  y: -0.8729067145785748
  z: -0.44374960527453866
angular_velocity_covariance: [0.0, 0.0, 0.0, 0.0, 0.0, 0.0, 0.0, 0.0, 0.0]
linear_acceleration: 
  x: 6.098803904770899
  y: 74.60191480431122
  z: -72.75602423440233
linear_acceleration_covariance: [0.0, 0.0, 0.0, 0.0, 0.0, 0.0, 0.0, 0.0, 0.0]
---
header: 
  seq: 39
  stamp: 
    secs: 4
    nsecs: 601000000
  frame_id: "imu_link"
orientation: 
  x: -0.21251970183933735
  y: -0.021557416229697993
  z: -0.0047104526556712946
  w: 0.9769076034975863
orientation_covariance: [0.0, 0.0, 0.0, 0.0, 0.0, 0.0, 0.0, 0.0, 0.0]
angular_velocity: 
  x: 1.5020301745331766
  y: -0.09822564331930753
  z: -0.0700083318299071
angular_velocity_covariance: [0.0, 0.0, 0.0, 0.0, 0.0, 0.0, 0.0, 0.0, 0.0]
linear_acceleration: 
  x: 1.6527900914012297
  y: -21.452658635735865
  z: 42.482111751516385
linear_acceleration_covariance: [0.0, 0.0, 0.0, 0.0, 0.0, 0.0, 0.0, 0.0, 0.0]
---
header: 
  seq: 40
  stamp: 
    secs: 4
    nsecs: 701000000
  frame_id: "imu_link"
orientation: 
  x: -0.1555945153710241
  y: -0.02571961595765256
  z: -0.004100969576120186
  w: 0.9874776099689465
orientation_covariance: [0.0, 0.0, 0.0, 0.0, 0.0, 0.0, 0.0, 0.0, 0.0]
angular_velocity: 
  x: 1.283424224767764
  y: 0.9891531460418879
  z: 0.37892760035166756
angular_velocity_covariance: [0.0, 0.0, 0.0, 0.0, 0.0, 0.0, 0.0, 0.0, 0.0]
linear_acceleration: 
  x: 2.5115538368333428
  y: -33.06857571184749
  z: 52.48613752042637
linear_acceleration_covariance: [0.0, 0.0, 0.0, 0.0, 0.0, 0.0, 0.0, 0.0, 0.0]
---
header: 
  seq: 41
  stamp: 
    secs: 4
    nsecs: 801000000
  frame_id: "imu_link"
orientation: 
  x: -0.2278013109207403
  y: -0.02070291357231907
  z: -0.004844864085199092
  w: 0.973475464202568
orientation_covariance: [0.0, 0.0, 0.0, 0.0, 0.0, 0.0, 0.0, 0.0, 0.0]
angular_velocity: 
  x: -1.5477352129050643
  y: 0.08543620260088777
  z: 0.042219291686159774
angular_velocity_covariance: [0.0, 0.0, 0.0, 0.0, 0.0, 0.0, 0.0, 0.0, 0.0]
linear_acceleration: 
  x: -0.18058469967979646
  y: -0.2179542215510768
  z: -0.05798454007569731
linear_acceleration_covariance: [0.0, 0.0, 0.0, 0.0, 0.0, 0.0, 0.0, 0.0, 0.0]
---
header: 
  seq: 42
  stamp: 
    secs: 4
    nsecs: 901000000
  frame_id: "imu_link"
orientation: 
  x: -0.2987094571650007
  y: -0.016052203060098573
  z: -0.005040355336301889
  w: 0.9541957774980938
orientation_covariance: [0.0, 0.0, 0.0, 0.0, 0.0, 0.0, 0.0, 0.0, 0.0]
angular_velocity: 
  x: -1.0721967678388824
  y: 0.0180452928397452
  z: 0.01535458430525164
angular_velocity_covariance: [0.0, 0.0, 0.0, 0.0, 0.0, 0.0, 0.0, 0.0, 0.0]
linear_acceleration: 
  x: -0.33127317633157183
  y: -4.826730348835059
  z: 9.86728520642708
linear_acceleration_covariance: [0.0, 0.0, 0.0, 0.0, 0.0, 0.0, 0.0, 0.0, 0.0]
---
header: 
  seq: 43
  stamp: 
    secs: 5
    nsecs:   1000000
  frame_id: "imu_link"
orientation: 
  x: -0.37462569845172833
  y: -0.010824132000511544
  z: -0.004379708483818912
  w: 0.9271026061766772
orientation_covariance: [0.0, 0.0, 0.0, 0.0, 0.0, 0.0, 0.0, 0.0, 0.0]
angular_velocity: 
  x: -2.4544510272707676
  y: 0.14023815960727692
  z: 0.13639688983052198
angular_velocity_covariance: [0.0, 0.0, 0.0, 0.0, 0.0, 0.0, 0.0, 0.0, 0.0]
linear_acceleration: 
  x: -3.432119064265861
  y: 16.609711583040077
  z: -23.793902996267853
linear_acceleration_covariance: [0.0, 0.0, 0.0, 0.0, 0.0, 0.0, 0.0, 0.0, 0.0]
---
header: 
  seq: 44
  stamp: 
    secs: 5
    nsecs: 101000000
  frame_id: "imu_link"
orientation: 
  x: -0.3253780031196315
  y: -0.014077225357710048
  z: -0.004844666530471395
  w: 0.945466824387994
orientation_covariance: [0.0, 0.0, 0.0, 0.0, 0.0, 0.0, 0.0, 0.0, 0.0]
angular_velocity: 
  x: 1.135063784253374
  y: 0.13554525414297014
  z: 0.1059430743791481
angular_velocity_covariance: [0.0, 0.0, 0.0, 0.0, 0.0, 0.0, 0.0, 0.0, 0.0]
linear_acceleration: 
  x: -10.306469048024129
  y: 3.0149717276032098
  z: -5.697501498547011
linear_acceleration_covariance: [0.0, 0.0, 0.0, 0.0, 0.0, 0.0, 0.0, 0.0, 0.0]
---
header: 
  seq: 45
  stamp: 
    secs: 5
    nsecs: 201000000
  frame_id: "imu_link"
orientation: 
  x: -0.2672889397349418
  y: -0.018016909496024816
  z: -0.0051771068484672885
  w: 0.9634340720735707
orientation_covariance: [0.0, 0.0, 0.0, 0.0, 0.0, 0.0, 0.0, 0.0, 0.0]
angular_velocity: 
  x: -2.1848084525938853
  y: -0.8374057139742828
  z: -0.4222111263594071
angular_velocity_covariance: [0.0, 0.0, 0.0, 0.0, 0.0, 0.0, 0.0, 0.0, 0.0]
linear_acceleration: 
  x: 5.570017237644058
  y: 73.1148330694469
  z: -71.15339147133554
linear_acceleration_covariance: [0.0, 0.0, 0.0, 0.0, 0.0, 0.0, 0.0, 0.0, 0.0]
---
header: 
  seq: 46
  stamp: 
    secs: 5
    nsecs: 301000000
  frame_id: "imu_link"
orientation: 
  x: -0.21093170118606344
  y: -0.02170063026535297
  z: -0.004684894828290332
  w: 0.9772486642821709
orientation_covariance: [0.0, 0.0, 0.0, 0.0, 0.0, 0.0, 0.0, 0.0, 0.0]
angular_velocity: 
  x: 0.901562004255782
  y: 0.5596433828426425
  z: 0.28562899741114806
angular_velocity_covariance: [0.0, 0.0, 0.0, 0.0, 0.0, 0.0, 0.0, 0.0, 0.0]
linear_acceleration: 
  x: -1.6220941825348754
  y: 1.0590272057556067
  z: 0.5909671994221988
linear_acceleration_covariance: [0.0, 0.0, 0.0, 0.0, 0.0, 0.0, 0.0, 0.0, 0.0]
---
header: 
  seq: 47
  stamp: 
    secs: 5
    nsecs: 401000000
  frame_id: "imu_link"
orientation: 
  x: -0.15538580567206275
  y: -0.02560064242951471
  z: -0.004034420555851125
  w: 0.9875138388668884
orientation_covariance: [0.0, 0.0, 0.0, 0.0, 0.0, 0.0, 0.0, 0.0, 0.0]
angular_velocity: 
  x: 0.48855228180940674
  y: -0.2217640743215072
  z: 0.0094032795144133
angular_velocity_covariance: [0.0, 0.0, 0.0, 0.0, 0.0, 0.0, 0.0, 0.0, 0.0]
linear_acceleration: 
  x: 0.7454709635377984
  y: -8.998079480885847
  z: 19.040073452221513
linear_acceleration_covariance: [0.0, 0.0, 0.0, 0.0, 0.0, 0.0, 0.0, 0.0, 0.0]
---
header: 
  seq: 48
  stamp: 
    secs: 5
    nsecs: 501000000
  frame_id: "imu_link"
orientation: 
  x: -0.22478594514154726
  y: -0.020903476750755445
  z: -0.0048235979718321016
  w: 0.9741719850360911
orientation_covariance: [0.0, 0.0, 0.0, 0.0, 0.0, 0.0, 0.0, 0.0, 0.0]
angular_velocity: 
  x: -1.5477338370811293
  y: 0.08576270406128363
  z: 0.041559265295486585
angular_velocity_covariance: [0.0, 0.0, 0.0, 0.0, 0.0, 0.0, 0.0, 0.0, 0.0]
linear_acceleration: 
  x: -0.1808574879078939
  y: -0.2125921940517026
  z: -0.06318991371641758
linear_acceleration_covariance: [0.0, 0.0, 0.0, 0.0, 0.0, 0.0, 0.0, 0.0, 0.0]
---
header: 
  seq: 49
  stamp: 
    secs: 5
    nsecs: 601000000
  frame_id: "imu_link"
orientation: 
  x: -0.29800297417729615
  y: -0.016027171954241047
  z: -0.005005244200011156
  w: 0.9544172592064402
orientation_covariance: [0.0, 0.0, 0.0, 0.0, 0.0, 0.0, 0.0, 0.0, 0.0]
angular_velocity: 
  x: -1.1535247598134755
  y: 0.03490031879079676
  z: 0.026032095504356634
angular_velocity_covariance: [0.0, 0.0, 0.0, 0.0, 0.0, 0.0, 0.0, 0.0, 0.0]
linear_acceleration: 
  x: 0.8703616699692645
  y: -25.228927912101497
  z: 38.810656772043274
linear_acceleration_covariance: [0.0, 0.0, 0.0, 0.0, 0.0, 0.0, 0.0, 0.0, 0.0]
---
header: 
  seq: 50
  stamp: 
    secs: 5
    nsecs: 701000000
  frame_id: "imu_link"
orientation: 
  x: -0.3717475884566285
  y: -0.011089867709876897
  z: -0.004449812638012315
  w: 0.9282569388258539
orientation_covariance: [0.0, 0.0, 0.0, 0.0, 0.0, 0.0, 0.0, 0.0, 0.0]
angular_velocity: 
  x: -1.522392649884838
  y: 0.01920062727568284
  z: 0.0151053886671569
angular_velocity_covariance: [0.0, 0.0, 0.0, 0.0, 0.0, 0.0, 0.0, 0.0, 0.0]
linear_acceleration: 
  x: 5.492990526069391
  y: -4.35978597093645
  z: 7.122333939248925
linear_acceleration_covariance: [0.0, 0.0, 0.0, 0.0, 0.0, 0.0, 0.0, 0.0, 0.0]
---
header: 
  seq: 51
  stamp: 
    secs: 5
    nsecs: 801000000
  frame_id: "imu_link"
orientation: 
  x: -0.32319070789065674
  y: -0.014220383365782949
  z: -0.004858170285777956
  w: 0.9462145344537575
orientation_covariance: [0.0, 0.0, 0.0, 0.0, 0.0, 0.0, 0.0, 0.0, 0.0]
angular_velocity: 
  x: 1.094956261947702
  y: -0.05872339053581623
  z: -0.04838064893358642
angular_velocity_covariance: [0.0, 0.0, 0.0, 0.0, 0.0, 0.0, 0.0, 0.0, 0.0]
linear_acceleration: 
  x: -2.1224082339658903
  y: 3.6993729861541675
  z: -4.363358353004921
linear_acceleration_covariance: [0.0, 0.0, 0.0, 0.0, 0.0, 0.0, 0.0, 0.0, 0.0]
---
header: 
  seq: 52
  stamp: 
    secs: 5
    nsecs: 901000000
  frame_id: "imu_link"
orientation: 
  x: -0.26109803732502124
  y: -0.017697416857823178
  z: -0.005056318913168375
  w: 0.9651368037644356
orientation_covariance: [0.0, 0.0, 0.0, 0.0, 0.0, 0.0, 0.0, 0.0, 0.0]
angular_velocity: 
  x: 1.718263325338804
  y: -0.2952032407383857
  z: -0.12631717771904058
angular_velocity_covariance: [0.0, 0.0, 0.0, 0.0, 0.0, 0.0, 0.0, 0.0, 0.0]
linear_acceleration: 
  x: 6.746023521895824
  y: -48.353153923817686
  z: 92.40821240873939
linear_acceleration_covariance: [0.0, 0.0, 0.0, 0.0, 0.0, 0.0, 0.0, 0.0, 0.0]
---
header: 
  seq: 53
  stamp: 
    secs: 6
    nsecs:   1000000
  frame_id: "imu_link"
orientation: 
  x: -0.21223194607967708
  y: -0.021751055492663266
  z: -0.004736069537759292
  w: 0.976965742640714
orientation_covariance: [0.0, 0.0, 0.0, 0.0, 0.0, 0.0, 0.0, 0.0, 0.0]
angular_velocity: 
  x: 0.21807516915869501
  y: -0.09664679566333781
  z: -0.035104273909004766
angular_velocity_covariance: [0.0, 0.0, 0.0, 0.0, 0.0, 0.0, 0.0, 0.0, 0.0]
linear_acceleration: 
  x: 0.514080009046722
  y: 7.530886230556293
  z: -7.38209805113096
linear_acceleration_covariance: [0.0, 0.0, 0.0, 0.0, 0.0, 0.0, 0.0, 0.0, 0.0]
---
header: 
  seq: 54
  stamp: 
    secs: 6
    nsecs: 101000000
  frame_id: "imu_link"
orientation: 
  x: -0.155898924850111
  y: -0.025638243343334886
  z: -0.00408268799844599
  w: 0.9874317887163421
orientation_covariance: [0.0, 0.0, 0.0, 0.0, 0.0, 0.0, 0.0, 0.0, 0.0]
angular_velocity: 
  x: 0.14299689940180793
  y: -0.805519061355212
  z: -0.37237587052255783
angular_velocity_covariance: [0.0, 0.0, 0.0, 0.0, 0.0, 0.0, 0.0, 0.0, 0.0]
linear_acceleration: 
  x: -0.6559226306311603
  y: 17.78320873598271
  z: -22.738731412671534
linear_acceleration_covariance: [0.0, 0.0, 0.0, 0.0, 0.0, 0.0, 0.0, 0.0, 0.0]
---
header: 
  seq: 55
  stamp: 
    secs: 6
    nsecs: 201000000
  frame_id: "imu_link"
orientation: 
  x: -0.2285548128723914
  y: -0.02065277529198952
  z: -0.004849992372711205
  w: 0.9732998705227434
orientation_covariance: [0.0, 0.0, 0.0, 0.0, 0.0, 0.0, 0.0, 0.0, 0.0]
angular_velocity: 
  x: -1.5477374201699927
  y: 0.08545962916115282
  z: 0.0422305877196662
angular_velocity_covariance: [0.0, 0.0, 0.0, 0.0, 0.0, 0.0, 0.0, 0.0, 0.0]
linear_acceleration: 
  x: -0.18603654268791614
  y: -0.29643148566432487
  z: -0.10679300383694823
linear_acceleration_covariance: [0.0, 0.0, 0.0, 0.0, 0.0, 0.0, 0.0, 0.0, 0.0]
---
header: 
  seq: 56
  stamp: 
    secs: 6
    nsecs: 301000000
  frame_id: "imu_link"
orientation: 
  x: -0.3000737307524401
  y: -0.015905664982532517
  z: -0.005005136471951496
  w: 0.9537702629788123
orientation_covariance: [0.0, 0.0, 0.0, 0.0, 0.0, 0.0, 0.0, 0.0, 0.0]
angular_velocity: 
  x: -2.104600775611096
  y: 0.1775983428052568
  z: 0.1213078269250185
angular_velocity_covariance: [0.0, 0.0, 0.0, 0.0, 0.0, 0.0, 0.0, 0.0, 0.0]
linear_acceleration: 
  x: -2.2198942133360537
  y: 17.3312784139282
  z: -17.07071329981359
linear_acceleration_covariance: [0.0, 0.0, 0.0, 0.0, 0.0, 0.0, 0.0, 0.0, 0.0]
---
header: 
  seq: 57
  stamp: 
    secs: 6
    nsecs: 401000000
  frame_id: "imu_link"
orientation: 
  x: -0.3739258429966703
  y: -0.010976711112780034
  z: -0.004431199545300657
  w: 0.9273830601337109
orientation_covariance: [0.0, 0.0, 0.0, 0.0, 0.0, 0.0, 0.0, 0.0, 0.0]
angular_velocity: 
  x: -1.5801419029157007
  y: 0.020506906071228025
  z: 0.024604280388692373
angular_velocity_covariance: [0.0, 0.0, 0.0, 0.0, 0.0, 0.0, 0.0, 0.0, 0.0]
linear_acceleration: 
  x: 2.3845916374022447
  y: -4.102869591310597
  z: 8.242500590317071
linear_acceleration_covariance: [0.0, 0.0, 0.0, 0.0, 0.0, 0.0, 0.0, 0.0, 0.0]
---
header: 
  seq: 58
  stamp: 
    secs: 6
    nsecs: 501000000
  frame_id: "imu_link"
orientation: 
  x: -0.32699239551776743
  y: -0.014141518784756483
  z: -0.004893056514436303
  w: 0.9449084869541382
orientation_covariance: [0.0, 0.0, 0.0, 0.0, 0.0, 0.0, 0.0, 0.0, 0.0]
angular_velocity: 
  x: 1.1811515138001727
  y: 0.00035143872278303994
  z: 0.0019201293015728455
angular_velocity_covariance: [0.0, 0.0, 0.0, 0.0, 0.0, 0.0, 0.0, 0.0, 0.0]
linear_acceleration: 
  x: 1.4744358670496047
  y: -2.2478160887255165
  z: 2.4381793522245987
linear_acceleration_covariance: [0.0, 0.0, 0.0, 0.0, 0.0, 0.0, 0.0, 0.0, 0.0]
---
header: 
  seq: 59
  stamp: 
    secs: 6
    nsecs: 601000000
  frame_id: "imu_link"
orientation: 
  x: -0.2723047814992951
  y: -0.017742411579415935
  z: -0.0050220403843902585
  w: 0.9620343506935422
orientation_covariance: [0.0, 0.0, 0.0, 0.0, 0.0, 0.0, 0.0, 0.0, 0.0]
angular_velocity: 
  x: 1.1498647224801029
  y: -0.06122853656967455
  z: -0.037435138728381605
angular_velocity_covariance: [0.0, 0.0, 0.0, 0.0, 0.0, 0.0, 0.0, 0.0, 0.0]
linear_acceleration: 
  x: 0.1640707954163076
  y: -0.2806968883531802
  z: 0.23931152669486444
linear_acceleration_covariance: [0.0, 0.0, 0.0, 0.0, 0.0, 0.0, 0.0, 0.0, 0.0]
---
header: 
  seq: 60
  stamp: 
    secs: 6
    nsecs: 701000000
  frame_id: "imu_link"
orientation: 
  x: -0.21310316527156217
  y: -0.02171577671967801
  z: -0.0047515840096813665
  w: 0.976776785372227
orientation_covariance: [0.0, 0.0, 0.0, 0.0, 0.0, 0.0, 0.0, 0.0, 0.0]
angular_velocity: 
  x: 2.1332908010755807
  y: -0.12298224702709802
  z: -0.10438737659323734
angular_velocity_covariance: [0.0, 0.0, 0.0, 0.0, 0.0, 0.0, 0.0, 0.0, 0.0]
linear_acceleration: 
  x: 0.9241044795966222
  y: -24.693408315542648
  z: 41.855396326207305
linear_acceleration_covariance: [0.0, 0.0, 0.0, 0.0, 0.0, 0.0, 0.0, 0.0, 0.0]
---
header: 
  seq: 61
  stamp: 
    secs: 6
    nsecs: 801000000
  frame_id: "imu_link"
orientation: 
  x: -0.1545145482112292
  y: -0.025164388412976506
  z: -0.00391387299719763
  w: 0.9876622345443011
orientation_covariance: [0.0, 0.0, 0.0, 0.0, 0.0, 0.0, 0.0, 0.0, 0.0]
angular_velocity: 
  x: 1.2612132609464939
  y: 1.304602611356915
  z: 0.5878887460658186
angular_velocity_covariance: [0.0, 0.0, 0.0, 0.0, 0.0, 0.0, 0.0, 0.0, 0.0]
linear_acceleration: 
  x: 1.9790929572759655
  y: -2.876167031249322
  z: 8.463364013912678
linear_acceleration_covariance: [0.0, 0.0, 0.0, 0.0, 0.0, 0.0, 0.0, 0.0, 0.0]
---
header: 
  seq: 62
  stamp: 
    secs: 6
    nsecs: 903000000
  frame_id: "imu_link"
orientation: 
  x: -0.22855481208969147
  y: -0.020652784877837425
  z: -0.004849993975420618
  w: 0.973299870495149
orientation_covariance: [0.0, 0.0, 0.0, 0.0, 0.0, 0.0, 0.0, 0.0, 0.0]
angular_velocity: 
  x: -1.5477332897144873
  y: 0.08543098337362738
  z: 0.042218160356699584
angular_velocity_covariance: [0.0, 0.0, 0.0, 0.0, 0.0, 0.0, 0.0, 0.0, 0.0]
linear_acceleration: 
  x: -0.18062964501728307
  y: -0.2193020280716933
  z: -0.05639316293930818
linear_acceleration_covariance: [0.0, 0.0, 0.0, 0.0, 0.0, 0.0, 0.0, 0.0, 0.0]
---
header: 
  seq: 63
  stamp: 
    secs: 7
    nsecs:   3000000
  frame_id: "imu_link"
orientation: 
  x: -0.29965993796814977
  y: -0.01602996310862385
  z: -0.005045580523998985
  w: 0.9538980574342504
orientation_covariance: [0.0, 0.0, 0.0, 0.0, 0.0, 0.0, 0.0, 0.0, 0.0]
angular_velocity: 
  x: -1.0585050543270496
  y: 0.007201537047963904
  z: 0.011525183243986457
angular_velocity_covariance: [0.0, 0.0, 0.0, 0.0, 0.0, 0.0, 0.0, 0.0, 0.0]
linear_acceleration: 
  x: -2.260953320325722
  y: -24.037587246683152
  z: 35.388862784910756
linear_acceleration_covariance: [0.0, 0.0, 0.0, 0.0, 0.0, 0.0, 0.0, 0.0, 0.0]
---
header: 
  seq: 64
  stamp: 
    secs: 7
    nsecs: 103000000
  frame_id: "imu_link"
orientation: 
  x: -0.3760660979318281
  y: -0.010767074438280358
  z: -0.004373000906659417
  w: 0.9265199603664453
orientation_covariance: [0.0, 0.0, 0.0, 0.0, 0.0, 0.0, 0.0, 0.0, 0.0]
angular_velocity: 
  x: -1.5500835486705944
  y: 0.14849791416375097
  z: 0.14673890756846114
angular_velocity_covariance: [0.0, 0.0, 0.0, 0.0, 0.0, 0.0, 0.0, 0.0, 0.0]
linear_acceleration: 
  x: -3.273522528842625
  y: -31.47722209034342
  z: 28.26720519571166
linear_acceleration_covariance: [0.0, 0.0, 0.0, 0.0, 0.0, 0.0, 0.0, 0.0, 0.0]
---
header: 
  seq: 65
  stamp: 
    secs: 7
    nsecs: 203000000
  frame_id: "imu_link"
orientation: 
  x: -0.32484904717515195
  y: -0.014146578235639851
  z: -0.004860914945687648
  w: 0.9456475783184292
orientation_covariance: [0.0, 0.0, 0.0, 0.0, 0.0, 0.0, 0.0, 0.0, 0.0]
angular_velocity: 
  x: 1.1311681578832116
  y: -0.13373253426967086
  z: -0.10661593769983352
angular_velocity_covariance: [0.0, 0.0, 0.0, 0.0, 0.0, 0.0, 0.0, 0.0, 0.0]
linear_acceleration: 
  x: 1.9775684720155164
  y: 2.3114413576967943
  z: -1.9801753360472922
linear_acceleration_covariance: [0.0, 0.0, 0.0, 0.0, 0.0, 0.0, 0.0, 0.0, 0.0]
---
header: 
  seq: 66
  stamp: 
    secs: 7
    nsecs: 303000000
  frame_id: "imu_link"
orientation: 
  x: -0.2642153581400436
  y: -0.018622330021564003
  z: -0.0051877950841682586
  w: 0.9642699518960761
orientation_covariance: [0.0, 0.0, 0.0, 0.0, 0.0, 0.0, 0.0, 0.0, 0.0]
angular_velocity: 
  x: 3.1422094283377406
  y: -0.18579766779891702
  z: -0.17306500629027666
angular_velocity_covariance: [0.0, 0.0, 0.0, 0.0, 0.0, 0.0, 0.0, 0.0, 0.0]
linear_acceleration: 
  x: -0.13328887142622414
  y: -65.77142684114024
  z: 99.20156400400163
linear_acceleration_covariance: [0.0, 0.0, 0.0, 0.0, 0.0, 0.0, 0.0, 0.0, 0.0]
---
header: 
  seq: 67
  stamp: 
    secs: 7
    nsecs: 403000000
  frame_id: "imu_link"
orientation: 
  x: -0.21001321939682904
  y: -0.021722069811314436
  z: -0.004695114255697393
  w: 0.9774459347011567
orientation_covariance: [0.0, 0.0, 0.0, 0.0, 0.0, 0.0, 0.0, 0.0, 0.0]
angular_velocity: 
  x: 1.5802297325861674
  y: -0.10604211930460236
  z: -0.07689337391445075
angular_velocity_covariance: [0.0, 0.0, 0.0, 0.0, 0.0, 0.0, 0.0, 0.0, 0.0]
linear_acceleration: 
  x: 1.6264249670367121
  y: -21.741516971760845
  z: 42.84409402162182
linear_acceleration_covariance: [0.0, 0.0, 0.0, 0.0, 0.0, 0.0, 0.0, 0.0, 0.0]
---
header: 
  seq: 68
  stamp: 
    secs: 7
    nsecs: 503000000
  frame_id: "imu_link"
orientation: 
  x: -0.1534170104219321
  y: -0.025234188294920034
  z: -0.0038955552314393804
  w: 0.9878316057424625
orientation_covariance: [0.0, 0.0, 0.0, 0.0, 0.0, 0.0, 0.0, 0.0, 0.0]
angular_velocity: 
  x: 1.2299859642538071
  y: 1.2511884888864269
  z: 0.5559069757466978
angular_velocity_covariance: [0.0, 0.0, 0.0, 0.0, 0.0, 0.0, 0.0, 0.0, 0.0]
linear_acceleration: 
  x: 2.115051005358069
  y: -2.9152634603844
  z: 8.611068051728456
linear_acceleration_covariance: [0.0, 0.0, 0.0, 0.0, 0.0, 0.0, 0.0, 0.0, 0.0]
---
header: 
  seq: 69
  stamp: 
    secs: 7
    nsecs: 603000000
  frame_id: "imu_link"
orientation: 
  x: -0.22629390008619477
  y: -0.020803188330835814
  z: -0.004834381792650304
  w: 0.9738248953953345
orientation_covariance: [0.0, 0.0, 0.0, 0.0, 0.0, 0.0, 0.0, 0.0, 0.0]
angular_velocity: 
  x: -1.5477377073836343
  y: 0.08556469495301995
  z: 0.041953220919404
angular_velocity_covariance: [0.0, 0.0, 0.0, 0.0, 0.0, 0.0, 0.0, 0.0, 0.0]
linear_acceleration: 
  x: -0.18049266100242178
  y: -0.21560593944334716
  z: -0.06014949234104172
linear_acceleration_covariance: [0.0, 0.0, 0.0, 0.0, 0.0, 0.0, 0.0, 0.0, 0.0]
---
header: 
  seq: 70
  stamp: 
    secs: 7
    nsecs: 703000000
  frame_id: "imu_link"
orientation: 
  x: -0.3000243698896043
  y: -0.015814736628898964
  z: -0.0049949416709077306
  w: 0.9537873568754247
orientation_covariance: [0.0, 0.0, 0.0, 0.0, 0.0, 0.0, 0.0, 0.0, 0.0]
angular_velocity: 
  x: -1.7035530389594506
  y: 0.30206359765160795
  z: 0.2226614822086434
angular_velocity_covariance: [0.0, 0.0, 0.0, 0.0, 0.0, 0.0, 0.0, 0.0, 0.0]
linear_acceleration: 
  x: -5.8476759667479055
  y: -42.202781489362415
  z: 41.906518088554094
linear_acceleration_covariance: [0.0, 0.0, 0.0, 0.0, 0.0, 0.0, 0.0, 0.0, 0.0]
---
header: 
  seq: 71
  stamp: 
    secs: 7
    nsecs: 803000000
  frame_id: "imu_link"
orientation: 
  x: -0.3761252803146034
  y: -0.010764908863861103
  z: -0.004373101861689339
  w: 0.9264959612569938
orientation_covariance: [0.0, 0.0, 0.0, 0.0, 0.0, 0.0, 0.0, 0.0, 0.0]
angular_velocity: 
  x: -1.529840765752088
  y: 0.010115192009443993
  z: 0.01993200753372937
angular_velocity_covariance: [0.0, 0.0, 0.0, 0.0, 0.0, 0.0, 0.0, 0.0, 0.0]
linear_acceleration: 
  x: 0.9680624584565535
  y: -26.54587205782989
  z: 29.15438453049462
linear_acceleration_covariance: [0.0, 0.0, 0.0, 0.0, 0.0, 0.0, 0.0, 0.0, 0.0]
---
header: 
  seq: 72
  stamp: 
    secs: 7
    nsecs: 903000000
  frame_id: "imu_link"
orientation: 
  x: -0.3248489392779022
  y: -0.014146340400342091
  z: -0.004860820177185452
  w: 0.9456476194283495
orientation_covariance: [0.0, 0.0, 0.0, 0.0, 0.0, 0.0, 0.0, 0.0, 0.0]
angular_velocity: 
  x: 1.1309864935541907
  y: -0.13245066354549795
  z: -0.10561548469662808
angular_velocity_covariance: [0.0, 0.0, 0.0, 0.0, 0.0, 0.0, 0.0, 0.0, 0.0]
linear_acceleration: 
  x: 1.9172824654952325
  y: 2.320956152097417
  z: -2.004088698526787
linear_acceleration_covariance: [0.0, 0.0, 0.0, 0.0, 0.0, 0.0, 0.0, 0.0, 0.0]
---
header: 
  seq: 73
  stamp: 
    secs: 8
    nsecs:   3000000
  frame_id: "imu_link"
orientation: 
  x: -0.26398894338046636
  y: -0.01876206712420016
  z: -0.005188455144838279
  w: 0.9643292500714172
orientation_covariance: [0.0, 0.0, 0.0, 0.0, 0.0, 0.0, 0.0, 0.0, 0.0]
angular_velocity: 
  x: 3.102882555724379
  y: -0.15673866400683567
  z: -0.16829431482728907
angular_velocity_covariance: [0.0, 0.0, 0.0, 0.0, 0.0, 0.0, 0.0, 0.0, 0.0]
linear_acceleration: 
  x: 0.5805777653052056
  y: -65.25323391042127
  z: 99.0423455364146
linear_acceleration_covariance: [0.0, 0.0, 0.0, 0.0, 0.0, 0.0, 0.0, 0.0, 0.0]
---
header: 
  seq: 74
  stamp: 
    secs: 8
    nsecs: 103000000
  frame_id: "imu_link"
orientation: 
  x: -0.2104215742088255
  y: -0.02177000465702179
  z: -0.004697008480170167
  w: 0.977357031036279
orientation_covariance: [0.0, 0.0, 0.0, 0.0, 0.0, 0.0, 0.0, 0.0, 0.0]
angular_velocity: 
  x: 0.997848204311563
  y: -0.07335046814246753
  z: -0.10485399290807709
angular_velocity_covariance: [0.0, 0.0, 0.0, 0.0, 0.0, 0.0, 0.0, 0.0, 0.0]
linear_acceleration: 
  x: -0.47728518780600765
  y: -38.362743566878365
  z: 61.79322317428678
linear_acceleration_covariance: [0.0, 0.0, 0.0, 0.0, 0.0, 0.0, 0.0, 0.0, 0.0]
---
header: 
  seq: 75
  stamp: 
    secs: 8
    nsecs: 203000000
  frame_id: "imu_link"
orientation: 
  x: -0.15464693690205067
  y: -0.025614756142053163
  z: -0.004008843785193169
  w: 0.9876295552210363
orientation_covariance: [0.0, 0.0, 0.0, 0.0, 0.0, 0.0, 0.0, 0.0, 0.0]
angular_velocity: 
  x: 1.190837371420463
  y: -1.0993664260553622
  z: -0.5306263391203254
angular_velocity_covariance: [0.0, 0.0, 0.0, 0.0, 0.0, 0.0, 0.0, 0.0, 0.0]
linear_acceleration: 
  x: 1.7170378427949835
  y: -24.877584760552633
  z: 43.193365319761995
linear_acceleration_covariance: [0.0, 0.0, 0.0, 0.0, 0.0, 0.0, 0.0, 0.0, 0.0]
---
header: 
  seq: 76
  stamp: 
    secs: 8
    nsecs: 303000000
  frame_id: "imu_link"
orientation: 
  x: -0.22704767082183583
  y: -0.020753049101236813
  z: -0.004839660110315033
  w: 0.9736504731254422
orientation_covariance: [0.0, 0.0, 0.0, 0.0, 0.0, 0.0, 0.0, 0.0, 0.0]
angular_velocity: 
  x: -1.5477357433023715
  y: 0.08549627735861971
  z: 0.0420844632799442
angular_velocity_covariance: [0.0, 0.0, 0.0, 0.0, 0.0, 0.0, 0.0, 0.0, 0.0]
linear_acceleration: 
  x: -0.1759756385640766
  y: -0.153019385751751
  z: -0.018445890111134844
linear_acceleration_covariance: [0.0, 0.0, 0.0, 0.0, 0.0, 0.0, 0.0, 0.0, 0.0]
---
header: 
  seq: 77
  stamp: 
    secs: 8
    nsecs: 403000000
  frame_id: "imu_link"
orientation: 
  x: -0.29913865528132383
  y: -0.01591210915804314
  z: -0.005011313540551343
  w: 0.9540638115111705
orientation_covariance: [0.0, 0.0, 0.0, 0.0, 0.0, 0.0, 0.0, 0.0, 0.0]
angular_velocity: 
  x: -1.4750703556572193
  y: 0.3109200806209005
  z: 0.22633675684986868
angular_velocity_covariance: [0.0, 0.0, 0.0, 0.0, 0.0, 0.0, 0.0, 0.0, 0.0]
linear_acceleration: 
  x: -3.447702111506106
  y: -6.518894835911646
  z: 2.5267669110475417
linear_acceleration_covariance: [0.0, 0.0, 0.0, 0.0, 0.0, 0.0, 0.0, 0.0, 0.0]
---
header: 
  seq: 78
  stamp: 
    secs: 8
    nsecs: 503000000
  frame_id: "imu_link"
orientation: 
  x: -0.3767955778079105
  y: -0.010807624048556284
  z: -0.004396376289379711
  w: 0.9262229535497108
orientation_covariance: [0.0, 0.0, 0.0, 0.0, 0.0, 0.0, 0.0, 0.0, 0.0]
angular_velocity: 
  x: -1.5754524513247903
  y: 0.060347235160700965
  z: 0.05897228010617201
angular_velocity_covariance: [0.0, 0.0, 0.0, 0.0, 0.0, 0.0, 0.0, 0.0, 0.0]
linear_acceleration: 
  x: 0.9150316387447968
  y: -9.451458656226173
  z: 4.4315657507165795
linear_acceleration_covariance: [0.0, 0.0, 0.0, 0.0, 0.0, 0.0, 0.0, 0.0, 0.0]
---
header: 
  seq: 79
  stamp: 
    secs: 8
    nsecs: 603000000
  frame_id: "imu_link"
orientation: 
  x: -0.32483515711019423
  y: -0.014239189114967018
  z: -0.004892244301110656
  w: 0.9456507982042006
orientation_covariance: [0.0, 0.0, 0.0, 0.0, 0.0, 0.0, 0.0, 0.0, 0.0]
angular_velocity: 
  x: 1.1739909639361554
  y: -0.2013775166816474
  z: -0.15729828704190468
angular_velocity_covariance: [0.0, 0.0, 0.0, 0.0, 0.0, 0.0, 0.0, 0.0, 0.0]
linear_acceleration: 
  x: 6.422964459781982
  y: -0.7547775117875126
  z: 2.129889451794627
linear_acceleration_covariance: [0.0, 0.0, 0.0, 0.0, 0.0, 0.0, 0.0, 0.0, 0.0]
---
header: 
  seq: 80
  stamp: 
    secs: 8
    nsecs: 703000000
  frame_id: "imu_link"
orientation: 
  x: -0.2638072790649124
  y: -0.018022312318775293
  z: -0.004960044765215108
  w: 0.9643942729646309
orientation_covariance: [0.0, 0.0, 0.0, 0.0, 0.0, 0.0, 0.0, 0.0, 0.0]
angular_velocity: 
  x: -2.9163170711797446
  y: 0.25383773282498373
  z: 0.17020462220354315
angular_velocity_covariance: [0.0, 0.0, 0.0, 0.0, 0.0, 0.0, 0.0, 0.0, 0.0]
linear_acceleration: 
  x: -0.11085846794619852
  y: 95.31474764444674
  z: -98.14824290668435
linear_acceleration_covariance: [0.0, 0.0, 0.0, 0.0, 0.0, 0.0, 0.0, 0.0, 0.0]
---
header: 
  seq: 81
  stamp: 
    secs: 8
    nsecs: 803000000
  frame_id: "imu_link"
orientation: 
  x: -0.2100209397700451
  y: -0.02176132372601764
  z: -0.0046847185227263275
  w: 0.9774434526151174
orientation_covariance: [0.0, 0.0, 0.0, 0.0, 0.0, 0.0, 0.0, 0.0, 0.0]
angular_velocity: 
  x: 1.0000218412396962
  y: -0.24191121085804274
  z: -0.08892236407905281
angular_velocity_covariance: [0.0, 0.0, 0.0, 0.0, 0.0, 0.0, 0.0, 0.0, 0.0]
linear_acceleration: 
  x: 4.959904977965821
  y: 9.960636073176875
  z: 1.858700297894413
linear_acceleration_covariance: [0.0, 0.0, 0.0, 0.0, 0.0, 0.0, 0.0, 0.0, 0.0]
---
header: 
  seq: 82
  stamp: 
    secs: 8
    nsecs: 903000000
  frame_id: "imu_link"
orientation: 
  x: -0.15383408354884176
  y: -0.025310759804596444
  z: -0.003937421670043485
  w: 0.9877646161345296
orientation_covariance: [0.0, 0.0, 0.0, 0.0, 0.0, 0.0, 0.0, 0.0, 0.0]
angular_velocity: 
  x: 1.2118438327130263
  y: 0.6972491287853153
  z: 0.24166158369917157
angular_velocity_covariance: [0.0, 0.0, 0.0, 0.0, 0.0, 0.0, 0.0, 0.0, 0.0]
linear_acceleration: 
  x: 1.164210137009371
  y: -1.8076450951950367
  z: 8.905480819444021
linear_acceleration_covariance: [0.0, 0.0, 0.0, 0.0, 0.0, 0.0, 0.0, 0.0, 0.0]
---
header: 
  seq: 83
  stamp: 
    secs: 9
    nsecs:   3000000
  frame_id: "imu_link"
orientation: 
  x: -0.22855481694712126
  y: -0.020652784559503097
  z: -0.004849992990911434
  w: 0.9732998693661654
orientation_covariance: [0.0, 0.0, 0.0, 0.0, 0.0, 0.0, 0.0, 0.0, 0.0]
angular_velocity: 
  x: -1.5477351212494992
  y: 0.08536776998041411
  z: 0.042350659225193155
angular_velocity_covariance: [0.0, 0.0, 0.0, 0.0, 0.0, 0.0, 0.0, 0.0, 0.0]
linear_acceleration: 
  x: -0.1805762946902164
  y: -0.21916229818787336
  z: -0.0568330458883306
linear_acceleration_covariance: [0.0, 0.0, 0.0, 0.0, 0.0, 0.0, 0.0, 0.0, 0.0]
---
header: 
  seq: 84
  stamp: 
    secs: 9
    nsecs: 103000000
  frame_id: "imu_link"
orientation: 
  x: -0.2996920730636694
  y: -0.015888186638704154
  z: -0.005012465176344456
  w: 0.9538905084237864
orientation_covariance: [0.0, 0.0, 0.0, 0.0, 0.0, 0.0, 0.0, 0.0, 0.0]
angular_velocity: 
  x: -1.2420927813927347
  y: 0.3347781517810234
  z: 0.24162271970521895
angular_velocity_covariance: [0.0, 0.0, 0.0, 0.0, 0.0, 0.0, 0.0, 0.0, 0.0]
linear_acceleration: 
  x: -3.0223095636708774
  y: -29.38924985247195
  z: 36.33986778994159
linear_acceleration_covariance: [0.0, 0.0, 0.0, 0.0, 0.0, 0.0, 0.0, 0.0, 0.0]
---
header: 
  seq: 85
  stamp: 
    secs: 9
    nsecs: 203000000
  frame_id: "imu_link"
orientation: 
  x: -0.37614089933972417
  y: -0.010767714127269911
  z: -0.004374431390216847
  w: 0.926489581445139
orientation_covariance: [0.0, 0.0, 0.0, 0.0, 0.0, 0.0, 0.0, 0.0, 0.0]
angular_velocity: 
  x: -1.5269174966848225
  y: 0.009798074708791203
  z: 0.019756609144089426
angular_velocity_covariance: [0.0, 0.0, 0.0, 0.0, 0.0, 0.0, 0.0, 0.0, 0.0]
linear_acceleration: 
  x: 0.952657140319742
  y: -26.03567578774176
  z: 28.62990784770541
linear_acceleration_covariance: [0.0, 0.0, 0.0, 0.0, 0.0, 0.0, 0.0, 0.0, 0.0]
---
header: 
  seq: 86
  stamp: 
    secs: 9
    nsecs: 303000000
  frame_id: "imu_link"
orientation: 
  x: -0.32539374893637246
  y: -0.014081315675031486
  z: -0.00484717988053818
  w: 0.9454613315991294
orientation_covariance: [0.0, 0.0, 0.0, 0.0, 0.0, 0.0, 0.0, 0.0, 0.0]
angular_velocity: 
  x: 1.1140128807493201
  y: -0.047160193449877305
  z: -0.039568611282462265
angular_velocity_covariance: [0.0, 0.0, 0.0, 0.0, 0.0, 0.0, 0.0, 0.0, 0.0]
linear_acceleration: 
  x: -2.207838996794124
  y: 3.3281277847895403
  z: -3.9890251810049016
linear_acceleration_covariance: [0.0, 0.0, 0.0, 0.0, 0.0, 0.0, 0.0, 0.0, 0.0]
---
header: 
  seq: 87
  stamp: 
    secs: 9
    nsecs: 403000000
  frame_id: "imu_link"
orientation: 
  x: -0.2641705885286447
  y: -0.018608006165892258
  z: -0.0051902726378794915
  w: 0.9642824810878314
orientation_covariance: [0.0, 0.0, 0.0, 0.0, 0.0, 0.0, 0.0, 0.0, 0.0]
angular_velocity: 
  x: 3.1451640212933056
  y: -0.19175641241856017
  z: -0.17344146773116126
angular_velocity_covariance: [0.0, 0.0, 0.0, 0.0, 0.0, 0.0, 0.0, 0.0, 0.0]
linear_acceleration: 
  x: -0.24576721557912812
  y: -65.65780166783834
  z: 98.6378058918062
linear_acceleration_covariance: [0.0, 0.0, 0.0, 0.0, 0.0, 0.0, 0.0, 0.0, 0.0]
---
header: 
  seq: 88
  stamp: 
    secs: 9
    nsecs: 503000000
  frame_id: "imu_link"
orientation: 
  x: -0.2105212875113213
  y: -0.022089012603474477
  z: -0.00476464507300396
  w: 0.9773280724424668
orientation_covariance: [0.0, 0.0, 0.0, 0.0, 0.0, 0.0, 0.0, 0.0, 0.0]
angular_velocity: 
  x: -0.7401388645857115
  y: -0.5135025435207481
  z: -0.2238289907869065
angular_velocity_covariance: [0.0, 0.0, 0.0, 0.0, 0.0, 0.0, 0.0, 0.0, 0.0]
linear_acceleration: 
  x: 3.7838982258953044
  y: 29.557993240178057
  z: -26.546885421482195
linear_acceleration_covariance: [0.0, 0.0, 0.0, 0.0, 0.0, 0.0, 0.0, 0.0, 0.0]
---
header: 
  seq: 89
  stamp: 
    secs: 9
    nsecs: 603000000
  frame_id: "imu_link"
orientation: 
  x: -0.15447046221725294
  y: -0.025257804389521455
  z: -0.003943010197473886
  w: 0.9876666301391331
orientation_covariance: [0.0, 0.0, 0.0, 0.0, 0.0, 0.0, 0.0, 0.0, 0.0]
angular_velocity: 
  x: 0.5063739857474153
  y: -0.11425346302771619
  z: 0.06423773918091176
angular_velocity_covariance: [0.0, 0.0, 0.0, 0.0, 0.0, 0.0, 0.0, 0.0, 0.0]
linear_acceleration: 
  x: -2.2371485346507143
  y: 15.106874153937797
  z: -12.281304490971173
linear_acceleration_covariance: [0.0, 0.0, 0.0, 0.0, 0.0, 0.0, 0.0, 0.0, 0.0]
---
header: 
  seq: 90
  stamp: 
    secs: 9
    nsecs: 703000000
  frame_id: "imu_link"
orientation: 
  x: -0.22704766963099066
  y: -0.020753050341765836
  z: -0.004839659958380984
  w: 0.9736504733774517
orientation_covariance: [0.0, 0.0, 0.0, 0.0, 0.0, 0.0, 0.0, 0.0, 0.0]
angular_velocity: 
  x: -1.547733380288395
  y: 0.08549945014095436
  z: 0.04208716050885148
angular_velocity_covariance: [0.0, 0.0, 0.0, 0.0, 0.0, 0.0, 0.0, 0.0, 0.0]
linear_acceleration: 
  x: -0.18067645767387658
  y: -0.21681640510689704
  z: -0.059094777901780304
linear_acceleration_covariance: [0.0, 0.0, 0.0, 0.0, 0.0, 0.0, 0.0, 0.0, 0.0]
---
header: 
  seq: 91
  stamp: 
    secs: 9
    nsecs: 803000000
  frame_id: "imu_link"
orientation: 
  x: -0.2986638988691803
  y: -0.015961226794332924
  z: -0.005014401412001717
  w: 0.9542117011072331
orientation_covariance: [0.0, 0.0, 0.0, 0.0, 0.0, 0.0, 0.0, 0.0, 0.0]
angular_velocity: 
  x: -1.4586386257169919
  y: 0.021079352829848998
  z: 0.02841177112203759
angular_velocity_covariance: [0.0, 0.0, 0.0, 0.0, 0.0, 0.0, 0.0, 0.0, 0.0]
linear_acceleration: 
  x: 3.4653396164595036
  y: -1.5931462842091086
  z: 4.82819913799915
linear_acceleration_covariance: [0.0, 0.0, 0.0, 0.0, 0.0, 0.0, 0.0, 0.0, 0.0]
---
header: 
  seq: 92
  stamp: 
    secs: 9
    nsecs: 903000000
  frame_id: "imu_link"
orientation: 
  x: -0.3754193742924576
  y: -0.010827864070106002
  z: -0.004389925870142555
  w: 0.9267814085944938
orientation_covariance: [0.0, 0.0, 0.0, 0.0, 0.0, 0.0, 0.0, 0.0, 0.0]
angular_velocity: 
  x: -1.5413262980718068
  y: 0.18142839542221414
  z: 0.17691324769385697
angular_velocity_covariance: [0.0, 0.0, 0.0, 0.0, 0.0, 0.0, 0.0, 0.0, 0.0]
linear_acceleration: 
  x: -0.9964358098883607
  y: -6.669118822773413
  z: 8.130976625866039
linear_acceleration_covariance: [0.0, 0.0, 0.0, 0.0, 0.0, 0.0, 0.0, 0.0, 0.0]
---
header: 
  seq: 93
  stamp: 
    secs: 10
    nsecs:   3000000
  frame_id: "imu_link"
orientation: 
  x: -0.32484656822408864
  y: -0.014166849503055584
  z: -0.00486780730189774
  w: 0.9456480909620989
orientation_covariance: [0.0, 0.0, 0.0, 0.0, 0.0, 0.0, 0.0, 0.0, 0.0]
angular_velocity: 
  x: 1.1408117134387714
  y: -0.15281244550063192
  z: -0.12105237119644807
angular_velocity_covariance: [0.0, 0.0, 0.0, 0.0, 0.0, 0.0, 0.0, 0.0, 0.0]
linear_acceleration: 
  x: 3.137374566103184
  y: 1.634584348718878
  z: -1.0292503567472249
linear_acceleration_covariance: [0.0, 0.0, 0.0, 0.0, 0.0, 0.0, 0.0, 0.0, 0.0]
---
header: 
  seq: 94
  stamp: 
    secs: 10
    nsecs: 103000000
  frame_id: "imu_link"
orientation: 
  x: -0.264225851108024
  y: -0.018680959691389477
  z: -0.00519312638499225
  w: 0.9642659139415843
orientation_covariance: [0.0, 0.0, 0.0, 0.0, 0.0, 0.0, 0.0, 0.0, 0.0]
angular_velocity: 
  x: 3.1096995594415224
  y: -0.17387977500745666
  z: -0.169261747115088
angular_velocity_covariance: [0.0, 0.0, 0.0, 0.0, 0.0, 0.0, 0.0, 0.0, 0.0]
linear_acceleration: 
  x: 0.1881388945399734
  y: -65.35143173790728
  z: 98.94445943706738
linear_acceleration_covariance: [0.0, 0.0, 0.0, 0.0, 0.0, 0.0, 0.0, 0.0, 0.0]
---
header: 
  seq: 95
  stamp: 
    secs: 10
    nsecs: 203000000
  frame_id: "imu_link"
orientation: 
  x: -0.21039294869981448
  y: -0.02177697319371586
  z: -0.004696258454237585
  w: 0.9773630419309134
orientation_covariance: [0.0, 0.0, 0.0, 0.0, 0.0, 0.0, 0.0, 0.0, 0.0]
angular_velocity: 
  x: 0.8649556184211022
  y: -0.12544414522995195
  z: -0.026656303921441315
angular_velocity_covariance: [0.0, 0.0, 0.0, 0.0, 0.0, 0.0, 0.0, 0.0, 0.0]
linear_acceleration: 
  x: 5.447023629661533
  y: 9.991137465076578
  z: 1.2876751349145383
linear_acceleration_covariance: [0.0, 0.0, 0.0, 0.0, 0.0, 0.0, 0.0, 0.0, 0.0]
---
header: 
  seq: 96
  stamp: 
    secs: 10
    nsecs: 303000000
  frame_id: "imu_link"
orientation: 
  x: -0.15393819156814453
  y: -0.025689112472720065
  z: -0.0040536882497919325
  w: 0.987738158769148
orientation_covariance: [0.0, 0.0, 0.0, 0.0, 0.0, 0.0, 0.0, 0.0, 0.0]
angular_velocity: 
  x: 1.1835499064027861
  y: -1.007423574741283
  z: -0.485590516905374
angular_velocity_covariance: [0.0, 0.0, 0.0, 0.0, 0.0, 0.0, 0.0, 0.0, 0.0]
linear_acceleration: 
  x: -0.1811892727113923
  y: -2.068087568366928
  z: 9.195462146989763
linear_acceleration_covariance: [0.0, 0.0, 0.0, 0.0, 0.0, 0.0, 0.0, 0.0, 0.0]
---
header: 
  seq: 97
  stamp: 
    secs: 10
    nsecs: 403000000
  frame_id: "imu_link"
orientation: 
