header: 
  seq: 0
  stamp: 
    secs: 0
    nsecs: 700000000
  frame_id: "imu_link"
orientation: 
  x: -0.3580266309904545
  y: -0.011289989083998309
  z: -0.004326329280475518
  w: 0.9336330920244125
orientation_covariance: [0.0, 0.0, 0.0, 0.0, 0.0, 0.0, 0.0, 0.0, 0.0]
angular_velocity: 
  x: -0.331290700498182
  y: 0.012810877252256209
  z: 0.010364403726096214
angular_velocity_covariance: [0.0, 0.0, 0.0, 0.0, 0.0, 0.0, 0.0, 0.0, 0.0]
linear_acceleration: 
  x: 0.23146534963805693
  y: -5.861192708602769
  z: 7.330222302101576
linear_acceleration_covariance: [0.0, 0.0, 0.0, 0.0, 0.0, 0.0, 0.0, 0.0, 0.0]
---
header: 
  seq: 1
  stamp: 
    secs: 0
    nsecs: 800000000
  frame_id: "imu_link"
orientation: 
  x: -0.37669262665945735
  y: -0.010803193569178153
  z: -0.004390870940665443
  w: 0.9262649061048832
orientation_covariance: [0.0, 0.0, 0.0, 0.0, 0.0, 0.0, 0.0, 0.0, 0.0]
angular_velocity: 
  x: -0.9717733343103231
  y: 0.018235450031594862
  z: 0.016002221614431753
angular_velocity_covariance: [0.0, 0.0, 0.0, 0.0, 0.0, 0.0, 0.0, 0.0, 0.0]
linear_acceleration: 
  x: 1.608585411645393
  y: 14.683596144058413
  z: -12.372046660735442
linear_acceleration_covariance: [0.0, 0.0, 0.0, 0.0, 0.0, 0.0, 0.0, 0.0, 0.0]
---
header: 
  seq: 2
  stamp: 
    secs: 0
    nsecs: 900000000
  frame_id: "imu_link"
orientation: 
  x: -0.32700692855870983
  y: -0.014145018006740943
  z: -0.0048953118914283125
  w: 0.9449033935073328
orientation_covariance: [0.0, 0.0, 0.0, 0.0, 0.0, 0.0, 0.0, 0.0, 0.0]
angular_velocity: 
  x: 1.1904949200673125
  y: -0.11876054600928855
  z: -0.0928743628390149
angular_velocity_covariance: [0.0, 0.0, 0.0, 0.0, 0.0, 0.0, 0.0, 0.0, 0.0]
linear_acceleration: 
  x: 3.614855852913449
  y: -2.3245406196428458
  z: 2.9659650324184215
linear_acceleration_covariance: [0.0, 0.0, 0.0, 0.0, 0.0, 0.0, 0.0, 0.0, 0.0]
---
header: 
  seq: 3
  stamp: 
    secs: 1
    nsecs:         0
  frame_id: "imu_link"
orientation: 
  x: -0.27174360024578004
  y: -0.017651823534127208
  z: -0.004985736256753668
  w: 0.9621948717829252
orientation_covariance: [0.0, 0.0, 0.0, 0.0, 0.0, 0.0, 0.0, 0.0, 0.0]
angular_velocity: 
  x: 1.3265693615129426
  y: 0.014770258031552179
  z: 0.005574485584601189
angular_velocity_covariance: [0.0, 0.0, 0.0, 0.0, 0.0, 0.0, 0.0, 0.0, 0.0]
linear_acceleration: 
  x: 0.03154016567115936
  y: -10.071038951642816
  z: 20.760911598293667
linear_acceleration_covariance: [0.0, 0.0, 0.0, 0.0, 0.0, 0.0, 0.0, 0.0, 0.0]
---
header: 
  seq: 4
  stamp: 
    secs: 1
    nsecs: 100000000
  frame_id: "imu_link"
orientation: 
  x: -0.21513108139445994
  y: -0.02167378869278562
  z: -0.004780006307893287
  w: 0.9763329433351345
orientation_covariance: [0.0, 0.0, 0.0, 0.0, 0.0, 0.0, 0.0, 0.0, 0.0]
angular_velocity: 
  x: 1.0283601437921812
  y: 0.032539383457746394
  z: 0.01985100454835279
angular_velocity_covariance: [0.0, 0.0, 0.0, 0.0, 0.0, 0.0, 0.0, 0.0, 0.0]
linear_acceleration: 
  x: 0.38367064745559043
  y: -7.179440978218954
  z: 14.949763887604428
linear_acceleration_covariance: [0.0, 0.0, 0.0, 0.0, 0.0, 0.0, 0.0, 0.0, 0.0]
---
header: 
  seq: 5
  stamp: 
    secs: 1
    nsecs: 200000000
  frame_id: "imu_link"
orientation: 
  x: -0.15788508991239014
  y: -0.02574043372629104
  z: -0.004064259219841273
  w: 0.9871135751533017
orientation_covariance: [0.0, 0.0, 0.0, 0.0, 0.0, 0.0, 0.0, 0.0, 0.0]
angular_velocity: 
  x: 1.5048532817752638
  y: 0.5212966102641778
  z: 0.3251830244675522
angular_velocity_covariance: [0.0, 0.0, 0.0, 0.0, 0.0, 0.0, 0.0, 0.0, 0.0]
linear_acceleration: 
  x: 0.15366305189921464
  y: 5.782184981381208
  z: -5.487433818080319
linear_acceleration_covariance: [0.0, 0.0, 0.0, 0.0, 0.0, 0.0, 0.0, 0.0, 0.0]
---
header: 
  seq: 6
  stamp: 
    secs: 1
    nsecs: 300000000
  frame_id: "imu_link"
orientation: 
  x: -0.22327745639815302
  y: -0.021003787396324244
  z: -0.0048125161782946405
  w: 0.9745167305220647
orientation_covariance: [0.0, 0.0, 0.0, 0.0, 0.0, 0.0, 0.0, 0.0, 0.0]
angular_velocity: 
  x: -1.5477364227505337
  y: 0.0858173525466374
  z: 0.0414200870017096
angular_velocity_covariance: [0.0, 0.0, 0.0, 0.0, 0.0, 0.0, 0.0, 0.0, 0.0]
linear_acceleration: 
  x: -0.18071532529695927
  y: -0.21092962888090305
  z: -0.06482887521423741
linear_acceleration_covariance: [0.0, 0.0, 0.0, 0.0, 0.0, 0.0, 0.0, 0.0, 0.0]
---
header: 
  seq: 7
  stamp: 
    secs: 1
    nsecs: 400000000
  frame_id: "imu_link"
orientation: 
  x: -0.295063582325104
  y: -0.016231568689910242
  z: -0.005013804101431096
  w: 0.9553265830760567
orientation_covariance: [0.0, 0.0, 0.0, 0.0, 0.0, 0.0, 0.0, 0.0, 0.0]
angular_velocity: 
  x: -1.2620596560162465
  y: 0.08451875939777637
  z: 0.05897715324985227
angular_velocity_covariance: [0.0, 0.0, 0.0, 0.0, 0.0, 0.0, 0.0, 0.0, 0.0]
linear_acceleration: 
  x: 0.3580960774037293
  y: -5.463576819826271
  z: 6.931343422453312
linear_acceleration_covariance: [0.0, 0.0, 0.0, 0.0, 0.0, 0.0, 0.0, 0.0, 0.0]
---
header: 
  seq: 8
  stamp: 
    secs: 1
    nsecs: 500000000
  frame_id: "imu_link"
orientation: 
  x: -0.36989981115753845
  y: -0.011372697549709997
  z: -0.004485097319301779
  w: 0.9289912138217973
orientation_covariance: [0.0, 0.0, 0.0, 0.0, 0.0, 0.0, 0.0, 0.0, 0.0]
angular_velocity: 
  x: -2.8285693558299
  y: 0.22625322202186388
  z: 0.1844014996216978
angular_velocity_covariance: [0.0, 0.0, 0.0, 0.0, 0.0, 0.0, 0.0, 0.0, 0.0]
linear_acceleration: 
  x: -2.3348809348340223
  y: 4.44843503969932
  z: -16.932216759330284
linear_acceleration_covariance: [0.0, 0.0, 0.0, 0.0, 0.0, 0.0, 0.0, 0.0, 0.0]
---
header: 
  seq: 9
  stamp: 
    secs: 1
    nsecs: 600000000
  frame_id: "imu_link"
orientation: 
  x: -0.32258072909064983
  y: -0.014264573934529779
  z: -0.004861687888278517
  w: 0.9464219773128095
orientation_covariance: [0.0, 0.0, 0.0, 0.0, 0.0, 0.0, 0.0, 0.0, 0.0]
angular_velocity: 
  x: 1.077456934063559
  y: 0.13653945887463137
  z: 0.10334925844579367
angular_velocity_covariance: [0.0, 0.0, 0.0, 0.0, 0.0, 0.0, 0.0, 0.0, 0.0]
linear_acceleration: 
  x: -7.45839094744683
  y: 1.3024660849812024
  z: -3.2337333453069617
linear_acceleration_covariance: [0.0, 0.0, 0.0, 0.0, 0.0, 0.0, 0.0, 0.0, 0.0]
---
header: 
  seq: 10
  stamp: 
    secs: 1
    nsecs: 700000000
  frame_id: "imu_link"
orientation: 
  x: -0.2697785494725284
  y: -0.01795777418615473
  z: -0.005022386910600218
  w: 0.9627418284361066
orientation_covariance: [0.0, 0.0, 0.0, 0.0, 0.0, 0.0, 0.0, 0.0, 0.0]
angular_velocity: 
  x: 0.21177510583458165
  y: -0.014805106098419963
  z: -0.009813554865194217
angular_velocity_covariance: [0.0, 0.0, 0.0, 0.0, 0.0, 0.0, 0.0, 0.0, 0.0]
linear_acceleration: 
  x: 4.059528838746788
  y: 46.312738867898084
  z: 10.226002869353419
linear_acceleration_covariance: [0.0, 0.0, 0.0, 0.0, 0.0, 0.0, 0.0, 0.0, 0.0]
---
header: 
  seq: 11
  stamp: 
    secs: 1
    nsecs: 800000000
  frame_id: "imu_link"
orientation: 
  x: -0.21607116629151554
  y: -0.021698181348102228
  z: -0.0048113859001974926
  w: 0.9761246286152853
orientation_covariance: [0.0, 0.0, 0.0, 0.0, 0.0, 0.0, 0.0, 0.0, 0.0]
angular_velocity: 
  x: 0.7777573466627068
  y: 0.2144391141457163
  z: 0.11987700902929034
angular_velocity_covariance: [0.0, 0.0, 0.0, 0.0, 0.0, 0.0, 0.0, 0.0, 0.0]
linear_acceleration: 
  x: -1.0903017976194642
  y: -45.090995930815126
  z: 58.17760607808946
linear_acceleration_covariance: [0.0, 0.0, 0.0, 0.0, 0.0, 0.0, 0.0, 0.0, 0.0]
---
header: 
  seq: 12
  stamp: 
    secs: 1
    nsecs: 900000000
  frame_id: "imu_link"
orientation: 
  x: -0.15873634576320092
  y: -0.02675948599892604
  z: -0.004355818830863561
  w: 0.9869486963794681
orientation_covariance: [0.0, 0.0, 0.0, 0.0, 0.0, 0.0, 0.0, 0.0, 0.0]
angular_velocity: 
  x: 0.46420384499746314
  y: -4.147464082521954
  z: -1.4602140490628803
angular_velocity_covariance: [0.0, 0.0, 0.0, 0.0, 0.0, 0.0, 0.0, 0.0, 0.0]
linear_acceleration: 
  x: -13.032223053455825
  y: 1.9312314203059096
  z: 32.52917495280359
linear_acceleration_covariance: [0.0, 0.0, 0.0, 0.0, 0.0, 0.0, 0.0, 0.0, 0.0]
---
header: 
  seq: 13
  stamp: 
    secs: 2
    nsecs:         0
  frame_id: "imu_link"
orientation: 
  x: -0.22478594290834533
  y: -0.020903478278400778
  z: -0.004823597345773219
  w: 0.9741719855217128
orientation_covariance: [0.0, 0.0, 0.0, 0.0, 0.0, 0.0, 0.0, 0.0, 0.0]
angular_velocity: 
  x: -1.5477353684027069
  y: 0.0856962610975956
  z: 0.04169118957341778
angular_velocity_covariance: [0.0, 0.0, 0.0, 0.0, 0.0, 0.0, 0.0, 0.0, 0.0]
linear_acceleration: 
  x: -0.1806705276038172
  y: -0.21315517697743935
  z: -0.0626908119567613
linear_acceleration_covariance: [0.0, 0.0, 0.0, 0.0, 0.0, 0.0, 0.0, 0.0, 0.0]
---
header: 
  seq: 14
  stamp: 
    secs: 2
    nsecs: 100000000
  frame_id: "imu_link"
orientation: 
  x: -0.2970537725336886
  y: -0.016104498482687957
  z: -0.00500705568397545
  w: 0.9547118050728725
orientation_covariance: [0.0, 0.0, 0.0, 0.0, 0.0, 0.0, 0.0, 0.0, 0.0]
angular_velocity: 
  x: -2.5344369188505462
  y: 0.16936263337377708
  z: 0.12044881975082028
angular_velocity_covariance: [0.0, 0.0, 0.0, 0.0, 0.0, 0.0, 0.0, 0.0, 0.0]
linear_acceleration: 
  x: -1.1165310891306346
  y: 23.29825239762541
  z: -31.831045167345657
linear_acceleration_covariance: [0.0, 0.0, 0.0, 0.0, 0.0, 0.0, 0.0, 0.0, 0.0]
---
header: 
  seq: 15
  stamp: 
    secs: 2
    nsecs: 200000000
  frame_id: "imu_link"
orientation: 
  x: -0.3743696477091769
  y: -0.011230130941631656
  z: -0.004413979011166943
  w: 0.9272010395930484
orientation_covariance: [0.0, 0.0, 0.0, 0.0, 0.0, 0.0, 0.0, 0.0, 0.0]
angular_velocity: 
  x: -2.5314184797570864
  y: 0.2405760183055543
  z: 0.15732269908997099
angular_velocity_covariance: [0.0, 0.0, 0.0, 0.0, 0.0, 0.0, 0.0, 0.0, 0.0]
linear_acceleration: 
  x: 0.7218669955632179
  y: 27.49167037588679
  z: -24.434903850929924
linear_acceleration_covariance: [0.0, 0.0, 0.0, 0.0, 0.0, 0.0, 0.0, 0.0, 0.0]
---
header: 
  seq: 16
  stamp: 
    secs: 2
    nsecs: 300000000
  frame_id: "imu_link"
orientation: 
  x: -0.3280929830644447
  y: -0.014030537691659281
  z: -0.004872984391611496
  w: 0.9445286615551038
orientation_covariance: [0.0, 0.0, 0.0, 0.0, 0.0, 0.0, 0.0, 0.0, 0.0]
angular_velocity: 
  x: 1.1626571262128609
  y: 0.04391560790655845
  z: 0.035545894694446564
angular_velocity_covariance: [0.0, 0.0, 0.0, 0.0, 0.0, 0.0, 0.0, 0.0, 0.0]
linear_acceleration: 
  x: -0.9811506874235818
  y: -1.474774700041058
  z: 1.0936180420759403
linear_acceleration_covariance: [0.0, 0.0, 0.0, 0.0, 0.0, 0.0, 0.0, 0.0, 0.0]
---
header: 
  seq: 17
  stamp: 
    secs: 2
    nsecs: 400000000
  frame_id: "imu_link"
orientation: 
  x: -0.2731375705685424
  y: -0.018463524145897636
  z: -0.005277877682187041
  w: 0.9617832967083593
orientation_covariance: [0.0, 0.0, 0.0, 0.0, 0.0, 0.0, 0.0, 0.0, 0.0]
angular_velocity: 
  x: -2.239893276352289
  y: -1.1899337731242223
  z: -0.7595914611703856
angular_velocity_covariance: [0.0, 0.0, 0.0, 0.0, 0.0, 0.0, 0.0, 0.0, 0.0]
linear_acceleration: 
  x: 16.917909787405605
  y: 54.6361522065522
  z: -76.65024730924382
linear_acceleration_covariance: [0.0, 0.0, 0.0, 0.0, 0.0, 0.0, 0.0, 0.0, 0.0]
---
header: 
  seq: 18
  stamp: 
    secs: 2
    nsecs: 500000000
  frame_id: "imu_link"
orientation: 
  x: -0.21547687659935386
  y: -0.021523621936868687
  z: -0.004750704409882085
  w: 0.976260149835747
orientation_covariance: [0.0, 0.0, 0.0, 0.0, 0.0, 0.0, 0.0, 0.0, 0.0]
angular_velocity: 
  x: 1.1760018547003759
  y: -0.06699261280059174
  z: -0.030885151377600995
angular_velocity_covariance: [0.0, 0.0, 0.0, 0.0, 0.0, 0.0, 0.0, 0.0, 0.0]
linear_acceleration: 
  x: -0.16169532687684535
  y: -0.21289167724227465
  z: 0.05404121819315577
linear_acceleration_covariance: [0.0, 0.0, 0.0, 0.0, 0.0, 0.0, 0.0, 0.0, 0.0]
---
header: 
  seq: 19
  stamp: 
    secs: 2
    nsecs: 600000000
  frame_id: "imu_link"
orientation: 
  x: -0.15781810131478363
  y: -0.025105254968689414
  z: -0.003939608305978336
  w: 0.9871411512832139
orientation_covariance: [0.0, 0.0, 0.0, 0.0, 0.0, 0.0, 0.0, 0.0, 0.0]
angular_velocity: 
  x: 0.654252940968851
  y: 3.253294025024983
  z: 1.0738138083512538
angular_velocity_covariance: [0.0, 0.0, 0.0, 0.0, 0.0, 0.0, 0.0, 0.0, 0.0]
linear_acceleration: 
  x: 6.538696273922898
  y: 3.6893905577232746
  z: -9.361995279609456
linear_acceleration_covariance: [0.0, 0.0, 0.0, 0.0, 0.0, 0.0, 0.0, 0.0, 0.0]
---
header: 
  seq: 20
  stamp: 
    secs: 2
    nsecs: 700000000
  frame_id: "imu_link"
orientation: 
  x: -0.2274345167726026
  y: -0.02072732009223027
  z: -0.004842326993533442
  w: 0.9735607174960864
orientation_covariance: [0.0, 0.0, 0.0, 0.0, 0.0, 0.0, 0.0, 0.0, 0.0]
angular_velocity: 
  x: -1.543860081098715
  y: 0.08525331566774769
  z: 0.042047933953877216
angular_velocity_covariance: [0.0, 0.0, 0.0, 0.0, 0.0, 0.0, 0.0, 0.0, 0.0]
linear_acceleration: 
  x: -0.17975009501776212
  y: -0.2164076249011453
  z: -0.05818585891817207
linear_acceleration_covariance: [0.0, 0.0, 0.0, 0.0, 0.0, 0.0, 0.0, 0.0, 0.0]
---
header: 
  seq: 21
  stamp: 
    secs: 2
    nsecs: 800000000
  frame_id: "imu_link"
orientation: 
  x: -0.29870232643174255
  y: -0.01602101969980391
  z: -0.005018123112924056
  w: 0.9541986509906975
orientation_covariance: [0.0, 0.0, 0.0, 0.0, 0.0, 0.0, 0.0, 0.0, 0.0]
angular_velocity: 
  x: -1.2469697611993709
  y: 0.07815166436907187
  z: 0.04638976140518706
angular_velocity_covariance: [0.0, 0.0, 0.0, 0.0, 0.0, 0.0, 0.0, 0.0, 0.0]
linear_acceleration: 
  x: 1.2833582961416603
  y: -32.22770353270069
  z: 53.41603995716593
linear_acceleration_covariance: [0.0, 0.0, 0.0, 0.0, 0.0, 0.0, 0.0, 0.0, 0.0]
---
header: 
  seq: 22
  stamp: 
    secs: 2
    nsecs: 900000000
  frame_id: "imu_link"
orientation: 
  x: -0.37358903622651657
  y: -0.011121366259608342
  z: -0.004407758581364317
  w: 0.9275171798345034
orientation_covariance: [0.0, 0.0, 0.0, 0.0, 0.0, 0.0, 0.0, 0.0, 0.0]
angular_velocity: 
  x: -1.448493257115213
  y: 0.08452454760162259
  z: 0.034972466369987076
angular_velocity_covariance: [0.0, 0.0, 0.0, 0.0, 0.0, 0.0, 0.0, 0.0, 0.0]
linear_acceleration: 
  x: -0.431612230813239
  y: -36.76794833208493
  z: 36.17353671950316
linear_acceleration_covariance: [0.0, 0.0, 0.0, 0.0, 0.0, 0.0, 0.0, 0.0, 0.0]
---
header: 
  seq: 23
  stamp: 
    secs: 3
    nsecs:         0
  frame_id: "imu_link"
orientation: 
  x: -0.3258994487780094
  y: -0.014096707793067619
  z: -0.0048589776245853205
  w: 0.945286846651338
orientation_covariance: [0.0, 0.0, 0.0, 0.0, 0.0, 0.0, 0.0, 0.0, 0.0]
angular_velocity: 
  x: 1.1208378913140469
  y: 0.18694810613895013
  z: 0.14583095736326454
angular_velocity_covariance: [0.0, 0.0, 0.0, 0.0, 0.0, 0.0, 0.0, 0.0, 0.0]
linear_acceleration: 
  x: -11.875277903351796
  y: 2.1131121708970397
  z: -5.097408681181091
linear_acceleration_covariance: [0.0, 0.0, 0.0, 0.0, 0.0, 0.0, 0.0, 0.0, 0.0]
---
header: 
  seq: 24
  stamp: 
    secs: 3
    nsecs: 100000000
  frame_id: "imu_link"
orientation: 
  x: -0.2700323492164908
  y: -0.018860812630749024
  z: -0.005303864616827996
  w: 0.9626518940632992
orientation_covariance: [0.0, 0.0, 0.0, 0.0, 0.0, 0.0, 0.0, 0.0, 0.0]
angular_velocity: 
  x: 0.9760115184477614
  y: -0.10493525470706573
  z: -0.06348539095895843
angular_velocity_covariance: [0.0, 0.0, 0.0, 0.0, 0.0, 0.0, 0.0, 0.0, 0.0]
linear_acceleration: 
  x: 2.5399672685273047
  y: -54.257973295757964
  z: 76.92965975448585
linear_acceleration_covariance: [0.0, 0.0, 0.0, 0.0, 0.0, 0.0, 0.0, 0.0, 0.0]
---
header: 
  seq: 25
  stamp: 
    secs: 3
    nsecs: 200000000
  frame_id: "imu_link"
orientation: 
  x: -0.21504443189156433
  y: -0.021551200494244836
  z: -0.004746864594104299
  w: 0.9763549074727983
orientation_covariance: [0.0, 0.0, 0.0, 0.0, 0.0, 0.0, 0.0, 0.0, 0.0]
angular_velocity: 
  x: 1.1547777622408135
  y: -0.06706584204535473
  z: -0.031126973279314917
angular_velocity_covariance: [0.0, 0.0, 0.0, 0.0, 0.0, 0.0, 0.0, 0.0, 0.0]
linear_acceleration: 
  x: -0.07206359611932178
  y: -0.1674041878608179
  z: 0.06796139384089095
linear_acceleration_covariance: [0.0, 0.0, 0.0, 0.0, 0.0, 0.0, 0.0, 0.0, 0.0]
---
header: 
  seq: 26
  stamp: 
    secs: 3
    nsecs: 300000000
  frame_id: "imu_link"
orientation: 
  x: -0.15757246434919772
  y: -0.024173393449297975
  z: -0.0038073769755033286
  w: 0.9872041680466268
orientation_covariance: [0.0, 0.0, 0.0, 0.0, 0.0, 0.0, 0.0, 0.0, 0.0]
angular_velocity: 
  x: 0.6055967404806751
  y: 2.9774039701999073
  z: 0.921647652523937
angular_velocity_covariance: [0.0, 0.0, 0.0, 0.0, 0.0, 0.0, 0.0, 0.0, 0.0]
linear_acceleration: 
  x: 13.72471102714621
  y: 30.610371847712216
  z: -61.26356545745021
linear_acceleration_covariance: [0.0, 0.0, 0.0, 0.0, 0.0, 0.0, 0.0, 0.0, 0.0]
---
header: 
  seq: 27
  stamp: 
    secs: 3
    nsecs: 400000000
  frame_id: "imu_link"
orientation: 
  x: -0.22478594171105454
  y: -0.02090348142990556
  z: -0.004823598179533086
  w: 0.9741719857262301
orientation_covariance: [0.0, 0.0, 0.0, 0.0, 0.0, 0.0, 0.0, 0.0, 0.0]
angular_velocity: 
  x: -1.5477363093239966
  y: 0.08575367816360766
  z: 0.041553569559043324
angular_velocity_covariance: [0.0, 0.0, 0.0, 0.0, 0.0, 0.0, 0.0, 0.0, 0.0]
linear_acceleration: 
  x: -0.18069930323771666
  y: -0.2126543821607143
  z: -0.06294640147485886
linear_acceleration_covariance: [0.0, 0.0, 0.0, 0.0, 0.0, 0.0, 0.0, 0.0, 0.0]
---
header: 
  seq: 28
  stamp: 
    secs: 3
    nsecs: 500000000
  frame_id: "imu_link"
orientation: 
  x: -0.2972598465931826
  y: -0.016056571109383775
  z: -0.004996447925965292
  w: 0.9546485246601126
orientation_covariance: [0.0, 0.0, 0.0, 0.0, 0.0, 0.0, 0.0, 0.0, 0.0]
angular_velocity: 
  x: -1.395702696159246
  y: 0.07904551164534894
  z: 0.04678616216790263
angular_velocity_covariance: [0.0, 0.0, 0.0, 0.0, 0.0, 0.0, 0.0, 0.0, 0.0]
linear_acceleration: 
  x: 0.06838790838062869
  y: -5.716420405207674
  z: 7.467784434963566
linear_acceleration_covariance: [0.0, 0.0, 0.0, 0.0, 0.0, 0.0, 0.0, 0.0, 0.0]
---
header: 
  seq: 29
  stamp: 
    secs: 3
    nsecs: 600000000
  frame_id: "imu_link"
orientation: 
  x: -0.371442363722039
  y: -0.011393053406716409
  z: -0.0044650144357208
  w: 0.9283753725798338
orientation_covariance: [0.0, 0.0, 0.0, 0.0, 0.0, 0.0, 0.0, 0.0, 0.0]
angular_velocity: 
  x: -1.4182951219877888
  y: 0.2044776406882965
  z: 0.1518116164776156
angular_velocity_covariance: [0.0, 0.0, 0.0, 0.0, 0.0, 0.0, 0.0, 0.0, 0.0]
linear_acceleration: 
  x: -8.203605771629983
  y: -13.520811278161673
  z: -1.4202372048237182
linear_acceleration_covariance: [0.0, 0.0, 0.0, 0.0, 0.0, 0.0, 0.0, 0.0, 0.0]
---
header: 
  seq: 30
  stamp: 
    secs: 3
    nsecs: 700000000
  frame_id: "imu_link"
orientation: 
  x: -0.3264282835351324
  y: -0.014290694199823236
  z: -0.004935675861235928
  w: 0.9451010479686219
orientation_covariance: [0.0, 0.0, 0.0, 0.0, 0.0, 0.0, 0.0, 0.0, 0.0]
angular_velocity: 
  x: 1.2359949964306736
  y: -0.19713510163071546
  z: -0.1513332440531039
angular_velocity_covariance: [0.0, 0.0, 0.0, 0.0, 0.0, 0.0, 0.0, 0.0, 0.0]
linear_acceleration: 
  x: 8.697875402506742
  y: -5.881620218639837
  z: 7.701017503313203
linear_acceleration_covariance: [0.0, 0.0, 0.0, 0.0, 0.0, 0.0, 0.0, 0.0, 0.0]
---
header: 
  seq: 31
  stamp: 
    secs: 3
    nsecs: 800000000
  frame_id: "imu_link"
orientation: 
  x: -0.27055353881083816
  y: -0.018851222180449784
  z: -0.005325151925267098
  w: 0.9625056139141258
orientation_covariance: [0.0, 0.0, 0.0, 0.0, 0.0, 0.0, 0.0, 0.0, 0.0]
angular_velocity: 
  x: 1.2514911832594926
  y: -0.14582967248794348
  z: -0.07507480659910178
angular_velocity_covariance: [0.0, 0.0, 0.0, 0.0, 0.0, 0.0, 0.0, 0.0, 0.0]
linear_acceleration: 
  x: 1.305496217800453
  y: -59.58422634256171
  z: 74.43103737126495
linear_acceleration_covariance: [0.0, 0.0, 0.0, 0.0, 0.0, 0.0, 0.0, 0.0, 0.0]
---
header: 
  seq: 32
  stamp: 
    secs: 3
    nsecs: 900000000
  frame_id: "imu_link"
orientation: 
  x: -0.21543714325307928
  y: -0.021523848491538242
  z: -0.004749928971784409
  w: 0.9762689175774412
orientation_covariance: [0.0, 0.0, 0.0, 0.0, 0.0, 0.0, 0.0, 0.0, 0.0]
angular_velocity: 
  x: 1.1611946700616351
  y: -0.06571054797131402
  z: -0.030741660479402515
angular_velocity_covariance: [0.0, 0.0, 0.0, 0.0, 0.0, 0.0, 0.0, 0.0, 0.0]
linear_acceleration: 
  x: -0.03875867321423032
  y: -0.08698917680109819
  z: -0.028358391118471715
linear_acceleration_covariance: [0.0, 0.0, 0.0, 0.0, 0.0, 0.0, 0.0, 0.0, 0.0]
---
header: 
  seq: 33
  stamp: 
    secs: 4
    nsecs:         0
  frame_id: "imu_link"
orientation: 
  x: -0.15788590805212419
  y: -0.026596481381260074
  z: -0.004376462968984664
  w: 0.9870894152955819
orientation_covariance: [0.0, 0.0, 0.0, 0.0, 0.0, 0.0, 0.0, 0.0, 0.0]
angular_velocity: 
  x: 0.10811013060330049
  y: -2.1902309544309873
  z: -0.7250322961449389
angular_velocity_covariance: [0.0, 0.0, 0.0, 0.0, 0.0, 0.0, 0.0, 0.0, 0.0]
linear_acceleration: 
  x: -7.091603832232185
  y: -16.8737894419517
  z: 64.92079116405277
linear_acceleration_covariance: [0.0, 0.0, 0.0, 0.0, 0.0, 0.0, 0.0, 0.0, 0.0]
---
header: 
  seq: 34
  stamp: 
    secs: 4
    nsecs: 100000000
  frame_id: "imu_link"
orientation: 
  x: -0.228570975864196
  y: -0.020651719005286902
  z: -0.004850091605551251
  w: 0.9732960968307813
orientation_covariance: [0.0, 0.0, 0.0, 0.0, 0.0, 0.0, 0.0, 0.0, 0.0]
angular_velocity: 
  x: -1.539979880072694
  y: 0.08493044830761833
  z: 0.04213730931845446
angular_velocity_covariance: [0.0, 0.0, 0.0, 0.0, 0.0, 0.0, 0.0, 0.0, 0.0]
linear_acceleration: 
  x: -0.17420261818870897
  y: -0.15416522915446507
  z: -0.015626132214238808
linear_acceleration_covariance: [0.0, 0.0, 0.0, 0.0, 0.0, 0.0, 0.0, 0.0, 0.0]
---
header: 
  seq: 35
  stamp: 
    secs: 4
    nsecs: 200000000
  frame_id: "imu_link"
orientation: 
  x: -0.29899044246755563
  y: -0.01604870602195977
  z: -0.004998793684956053
  w: 0.954108047555292
orientation_covariance: [0.0, 0.0, 0.0, 0.0, 0.0, 0.0, 0.0, 0.0, 0.0]
angular_velocity: 
  x: -1.3661754250570162
  y: 0.10220240490212762
  z: 0.0453527720811218
angular_velocity_covariance: [0.0, 0.0, 0.0, 0.0, 0.0, 0.0, 0.0, 0.0, 0.0]
linear_acceleration: 
  x: 3.1963962120396574
  y: -2.6828473600422003
  z: 6.062303908096341
linear_acceleration_covariance: [0.0, 0.0, 0.0, 0.0, 0.0, 0.0, 0.0, 0.0, 0.0]
---
header: 
  seq: 36
  stamp: 
    secs: 4
    nsecs: 300000000
  frame_id: "imu_link"
orientation: 
  x: -0.37031464432101197
  y: -0.011319200655441715
  z: -0.004483289979874038
  w: 0.928826593077998
orientation_covariance: [0.0, 0.0, 0.0, 0.0, 0.0, 0.0, 0.0, 0.0, 0.0]
angular_velocity: 
  x: -2.63244369181094
  y: 0.21021118284561832
  z: 0.17887131611757662
angular_velocity_covariance: [0.0, 0.0, 0.0, 0.0, 0.0, 0.0, 0.0, 0.0, 0.0]
linear_acceleration: 
  x: -2.881423874447869
  y: 1.7839176582611769
  z: -14.28635358904715
linear_acceleration_covariance: [0.0, 0.0, 0.0, 0.0, 0.0, 0.0, 0.0, 0.0, 0.0]
---
header: 
  seq: 37
  stamp: 
    secs: 4
    nsecs: 400000000
  frame_id: "imu_link"
orientation: 
  x: -0.32378724493623395
  y: -0.0143269702352477
  z: -0.0049026870476236595
  w: 0.9460087323065229
orientation_covariance: [0.0, 0.0, 0.0, 0.0, 0.0, 0.0, 0.0, 0.0, 0.0]
angular_velocity: 
  x: 1.147140438571011
  y: 0.0789038741695136
  z: 0.06237417065332459
angular_velocity_covariance: [0.0, 0.0, 0.0, 0.0, 0.0, 0.0, 0.0, 0.0, 0.0]
linear_acceleration: 
  x: -5.328255972079639
  y: -1.096964036754069
  z: -0.371318266994936
linear_acceleration_covariance: [0.0, 0.0, 0.0, 0.0, 0.0, 0.0, 0.0, 0.0, 0.0]
---
header: 
  seq: 38
  stamp: 
    secs: 4
    nsecs: 500000000
  frame_id: "imu_link"
orientation: 
  x: -0.26977054237358583
  y: -0.017967094028764435
  z: -0.005025265896601017
  w: 0.9627438832328623
orientation_covariance: [0.0, 0.0, 0.0, 0.0, 0.0, 0.0, 0.0, 0.0, 0.0]
angular_velocity: 
  x: 0.11263385186666676
  y: -0.012403262143468525
  z: -0.011390139219777357
angular_velocity_covariance: [0.0, 0.0, 0.0, 0.0, 0.0, 0.0, 0.0, 0.0, 0.0]
linear_acceleration: 
  x: 4.701904851892302
  y: -34.656669362482454
  z: 79.68200024975778
linear_acceleration_covariance: [0.0, 0.0, 0.0, 0.0, 0.0, 0.0, 0.0, 0.0, 0.0]
---
header: 
  seq: 39
  stamp: 
    secs: 4
    nsecs: 600000000
  frame_id: "imu_link"
orientation: 
  x: -0.2134871883309927
  y: -0.02240775845958987
  z: -0.004960313008607351
  w: 0.9766762555085492
orientation_covariance: [0.0, 0.0, 0.0, 0.0, 0.0, 0.0, 0.0, 0.0, 0.0]
angular_velocity: 
  x: 1.4510926264039636
  y: -0.014598520303057808
  z: -0.06696432632970124
angular_velocity_covariance: [0.0, 0.0, 0.0, 0.0, 0.0, 0.0, 0.0, 0.0, 0.0]
linear_acceleration: 
  x: 1.7962208215452482
  y: 6.654513345283293
  z: 12.618050049943077
linear_acceleration_covariance: [0.0, 0.0, 0.0, 0.0, 0.0, 0.0, 0.0, 0.0, 0.0]
---
header: 
  seq: 40
  stamp: 
    secs: 4
    nsecs: 700000000
  frame_id: "imu_link"
orientation: 
  x: -0.1582698405294448
  y: -0.024720474880957855
  z: -0.0038965087145607126
  w: 0.9870787065479031
orientation_covariance: [0.0, 0.0, 0.0, 0.0, 0.0, 0.0, 0.0, 0.0, 0.0]
angular_velocity: 
  x: 0.48275212749319385
  y: 3.0972168399850855
  z: 0.9945816393381264
angular_velocity_covariance: [0.0, 0.0, 0.0, 0.0, 0.0, 0.0, 0.0, 0.0, 0.0]
linear_acceleration: 
  x: 10.341410210100298
  y: -0.17594482239580111
  z: -16.478287126189493
linear_acceleration_covariance: [0.0, 0.0, 0.0, 0.0, 0.0, 0.0, 0.0, 0.0, 0.0]
---
header: 
  seq: 41
  stamp: 
    secs: 4
    nsecs: 800000000
  frame_id: "imu_link"
orientation: 
  x: -0.2278015449735322
  y: -0.020702893097512474
  z: -0.004844862076640626
  w: 0.973475409877683
orientation_covariance: [0.0, 0.0, 0.0, 0.0, 0.0, 0.0, 0.0, 0.0, 0.0]
angular_velocity: 
  x: -1.5401859904322739
  y: 0.0850067191163453
  z: 0.042008461738945006
angular_velocity_covariance: [0.0, 0.0, 0.0, 0.0, 0.0, 0.0, 0.0, 0.0, 0.0]
linear_acceleration: 
  x: -0.17858516797729862
  y: -0.2161663948114949
  z: -0.05676883082991324
linear_acceleration_covariance: [0.0, 0.0, 0.0, 0.0, 0.0, 0.0, 0.0, 0.0, 0.0]
---
header: 
  seq: 42
  stamp: 
    secs: 4
    nsecs: 900000000
  frame_id: "imu_link"
orientation: 
  x: -0.2995159345946912
  y: -0.015925645648490173
  z: -0.004998189539872883
  w: 0.953945279791179
orientation_covariance: [0.0, 0.0, 0.0, 0.0, 0.0, 0.0, 0.0, 0.0, 0.0]
angular_velocity: 
  x: -2.660553757088922
  y: 0.16732746169858023
  z: 0.12128335567405707
angular_velocity_covariance: [0.0, 0.0, 0.0, 0.0, 0.0, 0.0, 0.0, 0.0, 0.0]
linear_acceleration: 
  x: -1.432760471846581
  y: 19.910865354849335
  z: -31.335574219494138
linear_acceleration_covariance: [0.0, 0.0, 0.0, 0.0, 0.0, 0.0, 0.0, 0.0, 0.0]
---
header: 
  seq: 43
  stamp: 
    secs: 5
    nsecs:         0
  frame_id: "imu_link"
orientation: 
  x: -0.37352467313537313
  y: -0.011289336814650008
  z: -0.0044373582475485925
  w: 0.9275409313260419
orientation_covariance: [0.0, 0.0, 0.0, 0.0, 0.0, 0.0, 0.0, 0.0, 0.0]
angular_velocity: 
  x: -1.1899569934860426
  y: 0.25039206244490864
  z: 0.19016362408198753
angular_velocity_covariance: [0.0, 0.0, 0.0, 0.0, 0.0, 0.0, 0.0, 0.0, 0.0]
linear_acceleration: 
  x: -1.6283055774065218
  y: -33.342398039835594
  z: 44.10772714791038
linear_acceleration_covariance: [0.0, 0.0, 0.0, 0.0, 0.0, 0.0, 0.0, 0.0, 0.0]
---
header: 
  seq: 44
  stamp: 
    secs: 5
    nsecs: 100000000
  frame_id: "imu_link"
orientation: 
  x: -0.3269753307391049
  y: -0.014215182581702141
  z: -0.004917818565378707
  w: 0.9449131583022746
orientation_covariance: [0.0, 0.0, 0.0, 0.0, 0.0, 0.0, 0.0, 0.0, 0.0]
angular_velocity: 
  x: 1.2117798499420642
  y: -0.006669214338164673
  z: -0.0019529974052647956
angular_velocity_covariance: [0.0, 0.0, 0.0, 0.0, 0.0, 0.0, 0.0, 0.0, 0.0]
linear_acceleration: 
  x: -0.5968539187226933
  y: -4.228761930533549
  z: 3.8492855308110996
linear_acceleration_covariance: [0.0, 0.0, 0.0, 0.0, 0.0, 0.0, 0.0, 0.0, 0.0]
---
header: 
  seq: 45
  stamp: 
    secs: 5
    nsecs: 200000000
  frame_id: "imu_link"
orientation: 
  x: -0.27093581224524604
  y: -0.01786556248170606
  z: -0.005016425005721496
  w: 0.9624185382672048
orientation_covariance: [0.0, 0.0, 0.0, 0.0, 0.0, 0.0, 0.0, 0.0, 0.0]
angular_velocity: 
  x: 1.216290823296158
  y: -0.06501306083865781
  z: -0.0340551090228308
angular_velocity_covariance: [0.0, 0.0, 0.0, 0.0, 0.0, 0.0, 0.0, 0.0, 0.0]
linear_acceleration: 
  x: 3.3650327385286727
  y: -59.41609066274198
  z: 75.12427020840592
linear_acceleration_covariance: [0.0, 0.0, 0.0, 0.0, 0.0, 0.0, 0.0, 0.0, 0.0]
---
header: 
  seq: 46
  stamp: 
    secs: 5
    nsecs: 300000000
  frame_id: "imu_link"
orientation: 
  x: -0.21594199062613542
  y: -0.02202393448302427
  z: -0.004888139829096778
  w: 0.9761455368352204
orientation_covariance: [0.0, 0.0, 0.0, 0.0, 0.0, 0.0, 0.0, 0.0, 0.0]
angular_velocity: 
  x: -0.1595855680371096
  y: -0.8383570890678368
  z: -0.4178436225865914
angular_velocity_covariance: [0.0, 0.0, 0.0, 0.0, 0.0, 0.0, 0.0, 0.0, 0.0]
linear_acceleration: 
  x: 5.084894875997556
  y: 23.636692028853382
  z: -29.751022865185
linear_acceleration_covariance: [0.0, 0.0, 0.0, 0.0, 0.0, 0.0, 0.0, 0.0, 0.0]
---
header: 
  seq: 47
  stamp: 
    secs: 5
    nsecs: 400000000
  frame_id: "imu_link"
orientation: 
  x: -0.15574475783749608
  y: -0.025176623616245168
  z: -0.0039332653624915975
  w: 0.9874686007428357
orientation_covariance: [0.0, 0.0, 0.0, 0.0, 0.0, 0.0, 0.0, 0.0, 0.0]
angular_velocity: 
  x: 0.6770574746680889
  y: 1.251134962484256
  z: 0.3055764816839942
angular_velocity_covariance: [0.0, 0.0, 0.0, 0.0, 0.0, 0.0, 0.0, 0.0, 0.0]
linear_acceleration: 
  x: 9.813979648938203
  y: 1.679451046185752
  z: -16.56032770407481
linear_acceleration_covariance: [0.0, 0.0, 0.0, 0.0, 0.0, 0.0, 0.0, 0.0, 0.0]
---
header: 
  seq: 48
  stamp: 
    secs: 5
    nsecs: 500000000
  frame_id: "imu_link"
orientation: 
  x: -0.22327745643222585
  y: -0.021003789659845663
  z: -0.004812516086558024
  w: 0.9745167304659255
orientation_covariance: [0.0, 0.0, 0.0, 0.0, 0.0, 0.0, 0.0, 0.0, 0.0]
angular_velocity: 
  x: -1.547734287738687
  y: 0.08581854887546417
  z: 0.04142158852364426
angular_velocity_covariance: [0.0, 0.0, 0.0, 0.0, 0.0, 0.0, 0.0, 0.0, 0.0]
linear_acceleration: 
  x: -0.18068536647460032
  y: -0.21102393672534703
  z: -0.06463271515812075
linear_acceleration_covariance: [0.0, 0.0, 0.0, 0.0, 0.0, 0.0, 0.0, 0.0, 0.0]
---
header: 
  seq: 49
  stamp: 
    secs: 5
    nsecs: 600000000
  frame_id: "imu_link"
orientation: 
  x: -0.29627971984310797
  y: -0.016178908000026828
  z: -0.005020584757635758
  w: 0.9549509748014855
orientation_covariance: [0.0, 0.0, 0.0, 0.0, 0.0, 0.0, 0.0, 0.0, 0.0]
angular_velocity: 
  x: -1.322426486328238
  y: 0.08275837290421924
  z: 0.04820070195621861
angular_velocity_covariance: [0.0, 0.0, 0.0, 0.0, 0.0, 0.0, 0.0, 0.0, 0.0]
linear_acceleration: 
  x: 1.295933867796805
  y: -31.82037032127498
  z: 51.00022676807474
linear_acceleration_covariance: [0.0, 0.0, 0.0, 0.0, 0.0, 0.0, 0.0, 0.0, 0.0]
---
header: 
  seq: 50
  stamp: 
    secs: 5
    nsecs: 700000000
  frame_id: "imu_link"
orientation: 
  x: -0.37268298538720085
  y: -0.011153407738595572
  z: -0.004453181567979492
  w: 0.9278810069575855
orientation_covariance: [0.0, 0.0, 0.0, 0.0, 0.0, 0.0, 0.0, 0.0, 0.0]
angular_velocity: 
  x: -2.7650238170340313
  y: 0.22605890629324246
  z: 0.19813547889479827
angular_velocity_covariance: [0.0, 0.0, 0.0, 0.0, 0.0, 0.0, 0.0, 0.0, 0.0]
linear_acceleration: 
  x: -3.014392201425037
  y: 0.821248409914217
  z: -16.022828405936018
linear_acceleration_covariance: [0.0, 0.0, 0.0, 0.0, 0.0, 0.0, 0.0, 0.0, 0.0]
---
header: 
  seq: 51
  stamp: 
    secs: 5
    nsecs: 800000000
  frame_id: "imu_link"
orientation: 
  x: -0.32586393643329914
  y: -0.014245642202937172
  z: -0.0049098397900300276
  w: 0.9452965937120776
orientation_covariance: [0.0, 0.0, 0.0, 0.0, 0.0, 0.0, 0.0, 0.0, 0.0]
angular_velocity: 
  x: 1.189392320162521
  y: 0.004974133603815428
  z: 0.00619335555843944
angular_velocity_covariance: [0.0, 0.0, 0.0, 0.0, 0.0, 0.0, 0.0, 0.0, 0.0]
linear_acceleration: 
  x: -1.5362807674789898
  y: -2.8990581751051483
  z: 2.3270943132243387
linear_acceleration_covariance: [0.0, 0.0, 0.0, 0.0, 0.0, 0.0, 0.0, 0.0, 0.0]
---
header: 
  seq: 52
  stamp: 
    secs: 5
    nsecs: 900000000
  frame_id: "imu_link"
orientation: 
  x: -0.2704519486189701
  y: -0.0187277251795292
  z: -0.005283092169511653
  w: 0.9625368069507422
orientation_covariance: [0.0, 0.0, 0.0, 0.0, 0.0, 0.0, 0.0, 0.0, 0.0]
angular_velocity: 
  x: -1.8641546300432108
  y: -1.1139646542476553
  z: -0.7136903532924369
angular_velocity_covariance: [0.0, 0.0, 0.0, 0.0, 0.0, 0.0, 0.0, 0.0, 0.0]
linear_acceleration: 
  x: 17.639161534375173
  y: 46.72246892667028
  z: -70.63795422053512
linear_acceleration_covariance: [0.0, 0.0, 0.0, 0.0, 0.0, 0.0, 0.0, 0.0, 0.0]
---
header: 
  seq: 53
  stamp: 
    secs: 6
    nsecs:         0
  frame_id: "imu_link"
orientation: 
  x: -0.2148646449496399
  y: -0.02156261819967263
  z: -0.004745112731373354
  w: 0.9763942450425478
orientation_covariance: [0.0, 0.0, 0.0, 0.0, 0.0, 0.0, 0.0, 0.0, 0.0]
angular_velocity: 
  x: 1.1629973528786333
  y: -0.06244993359971559
  z: -0.02883282317313351
angular_velocity_covariance: [0.0, 0.0, 0.0, 0.0, 0.0, 0.0, 0.0, 0.0, 0.0]
linear_acceleration: 
  x: -0.1471992906813251
  y: -0.08536808326153178
  z: -0.1268521890845804
linear_acceleration_covariance: [0.0, 0.0, 0.0, 0.0, 0.0, 0.0, 0.0, 0.0, 0.0]
---
header: 
  seq: 54
  stamp: 
    secs: 6
    nsecs: 100000000
  frame_id: "imu_link"
orientation: 
  x: -0.15872020955210914
  y: -0.025636915321931464
  z: -0.0041705935473737975
  w: 0.9869818892978601
orientation_covariance: [0.0, 0.0, 0.0, 0.0, 0.0, 0.0, 0.0, 0.0, 0.0]
angular_velocity: 
  x: 0.9117766695881134
  y: -1.286235354101501
  z: -0.422600388749147
angular_velocity_covariance: [0.0, 0.0, 0.0, 0.0, 0.0, 0.0, 0.0, 0.0, 0.0]
linear_acceleration: 
  x: -0.16251685941771865
  y: 9.105405963345529
  z: -14.856017008082508
linear_acceleration_covariance: [0.0, 0.0, 0.0, 0.0, 0.0, 0.0, 0.0, 0.0, 0.0]
---
header: 
  seq: 55
  stamp: 
    secs: 6
    nsecs: 200000000
  frame_id: "imu_link"
orientation: 
  x: -0.2240317701235254
  y: -0.020953634633017335
  z: -0.004818088305977152
  w: 0.9743446501090165
orientation_covariance: [0.0, 0.0, 0.0, 0.0, 0.0, 0.0, 0.0, 0.0, 0.0]
angular_velocity: 
  x: -1.5477357995338459
  y: 0.08575583107133222
  z: 0.04155144555538785
angular_velocity_covariance: [0.0, 0.0, 0.0, 0.0, 0.0, 0.0, 0.0, 0.0, 0.0]
linear_acceleration: 
  x: -0.18069767781058738
  y: -0.21212142505932707
  z: -0.06362154734522107
linear_acceleration_covariance: [0.0, 0.0, 0.0, 0.0, 0.0, 0.0, 0.0, 0.0, 0.0]
---
header: 
  seq: 56
  stamp: 
    secs: 6
    nsecs: 300000000
  frame_id: "imu_link"
orientation: 
  x: -0.2977548959523143
  y: -0.01605272031124398
  z: -0.005004402993237361
  w: 0.9544942577395199
orientation_covariance: [0.0, 0.0, 0.0, 0.0, 0.0, 0.0, 0.0, 0.0, 0.0]
angular_velocity: 
  x: -2.6143022038985797
  y: 0.1965191058453284
  z: 0.14018611184591592
angular_velocity_covariance: [0.0, 0.0, 0.0, 0.0, 0.0, 0.0, 0.0, 0.0, 0.0]
linear_acceleration: 
  x: -0.44682386707903177
  y: -5.157010174285878
  z: 7.675437203732665
linear_acceleration_covariance: [0.0, 0.0, 0.0, 0.0, 0.0, 0.0, 0.0, 0.0, 0.0]
---
header: 
  seq: 57
  stamp: 
    secs: 6
    nsecs: 400000000
  frame_id: "imu_link"
orientation: 
  x: -0.37457055338278344
  y: -0.011199076361631422
  z: -0.004509011242684993
  w: 0.9271198142876546
orientation_covariance: [0.0, 0.0, 0.0, 0.0, 0.0, 0.0, 0.0, 0.0, 0.0]
angular_velocity: 
  x: -2.9797196227168503
  y: 0.1943867026310466
  z: 0.1781551832400679
angular_velocity_covariance: [0.0, 0.0, 0.0, 0.0, 0.0, 0.0, 0.0, 0.0, 0.0]
linear_acceleration: 
  x: 0.4121856544216369
  y: -17.626082112317828
  z: 18.456588691815725
linear_acceleration_covariance: [0.0, 0.0, 0.0, 0.0, 0.0, 0.0, 0.0, 0.0, 0.0]
---
header: 
  seq: 58
  stamp: 
    secs: 6
    nsecs: 500000000
  frame_id: "imu_link"
orientation: 
  x: -0.3275607762501313
  y: -0.014148951844560753
  z: -0.004906454337191053
  w: 0.9447114224618799
orientation_covariance: [0.0, 0.0, 0.0, 0.0, 0.0, 0.0, 0.0, 0.0, 0.0]
angular_velocity: 
  x: 1.2143276781590624
  y: -0.2356355097013953
  z: -0.18401719134334643
angular_velocity_covariance: [0.0, 0.0, 0.0, 0.0, 0.0, 0.0, 0.0, 0.0, 0.0]
linear_acceleration: 
  x: 9.527563395469715
  y: -3.886024127193709
  z: 5.90071733819606
linear_acceleration_covariance: [0.0, 0.0, 0.0, 0.0, 0.0, 0.0, 0.0, 0.0, 0.0]
---
header: 
  seq: 59
  stamp: 
    secs: 6
    nsecs: 600000000
  frame_id: "imu_link"
orientation: 
  x: -0.2731687183105737
  y: -0.017681019775534854
  z: -0.00502203721542116
  w: 0.9617905239803843
orientation_covariance: [0.0, 0.0, 0.0, 0.0, 0.0, 0.0, 0.0, 0.0, 0.0]
angular_velocity: 
  x: 1.1387547430466307
  y: -0.07932698981166846
  z: -0.04909278915806356
angular_velocity_covariance: [0.0, 0.0, 0.0, 0.0, 0.0, 0.0, 0.0, 0.0, 0.0]
linear_acceleration: 
  x: -0.09713164900848331
  y: 0.0611513373165371
  z: -0.25596349883771374
linear_acceleration_covariance: [0.0, 0.0, 0.0, 0.0, 0.0, 0.0, 0.0, 0.0, 0.0]
---
header: 
  seq: 60
  stamp: 
    secs: 6
    nsecs: 700000000
  frame_id: "imu_link"
orientation: 
  x: -0.21534132245809312
  y: -0.021595511368079367
  z: -0.004768258875182416
  w: 0.9762883858973483
orientation_covariance: [0.0, 0.0, 0.0, 0.0, 0.0, 0.0, 0.0, 0.0, 0.0]
angular_velocity: 
  x: 1.9681867536275577
  y: -0.16348978579259363
  z: -0.10134962935716359
angular_velocity_covariance: [0.0, 0.0, 0.0, 0.0, 0.0, 0.0, 0.0, 0.0, 0.0]
linear_acceleration: 
  x: -0.025531283303343644
  y: -30.62010333751461
  z: 37.58675148698868
linear_acceleration_covariance: [0.0, 0.0, 0.0, 0.0, 0.0, 0.0, 0.0, 0.0, 0.0]
---
header: 
  seq: 61
  stamp: 
    secs: 6
    nsecs: 800000000
  frame_id: "imu_link"
orientation: 
  x: -0.1583952279079869
  y: -0.025361146068192446
  z: -0.004130737914145083
  w: 0.9870413877089297
orientation_covariance: [0.0, 0.0, 0.0, 0.0, 0.0, 0.0, 0.0, 0.0, 0.0]
angular_velocity: 
  x: 0.2218567058582337
  y: -0.9746317618679937
  z: -0.5813260037753761
angular_velocity_covariance: [0.0, 0.0, 0.0, 0.0, 0.0, 0.0, 0.0, 0.0, 0.0]
linear_acceleration: 
  x: 1.2276238275757407
  y: 23.276040575472837
  z: -30.350373744395256
linear_acceleration_covariance: [0.0, 0.0, 0.0, 0.0, 0.0, 0.0, 0.0, 0.0, 0.0]
---
header: 
  seq: 62
  stamp: 
    secs: 6
    nsecs: 900000000
  frame_id: "imu_link"
orientation: 
  x: -0.22553999045106476
  y: -0.020853332401048932
  z: -0.004829027428188113
  w: 0.9739987329197112
orientation_covariance: [0.0, 0.0, 0.0, 0.0, 0.0, 0.0, 0.0, 0.0, 0.0]
angular_velocity: 
  x: -1.5477352197875414
  y: 0.08562561746580888
  z: 0.04181879995665518
angular_velocity_covariance: [0.0, 0.0, 0.0, 0.0, 0.0, 0.0, 0.0, 0.0, 0.0]
linear_acceleration: 
  x: -0.18064237847608877
  y: -0.21453932804864007
  z: -0.06124178966036631
linear_acceleration_covariance: [0.0, 0.0, 0.0, 0.0, 0.0, 0.0, 0.0, 0.0, 0.0]
---
header: 
  seq: 63
  stamp: 
    secs: 7
    nsecs:         0
  frame_id: "imu_link"
orientation: 
  x: -0.2977510563590692
  y: -0.016110117828435105
  z: -0.005027385851739127
  w: 0.9544943676796162
orientation_covariance: [0.0, 0.0, 0.0, 0.0, 0.0, 0.0, 0.0, 0.0, 0.0]
angular_velocity: 
  x: -1.1150748555289127
  y: 0.05744077540609406
  z: 0.041937622628869284
angular_velocity_covariance: [0.0, 0.0, 0.0, 0.0, 0.0, 0.0, 0.0, 0.0, 0.0]
linear_acceleration: 
  x: 0.6672236043916087
  y: -16.02092948503322
  z: 27.076344393309626
linear_acceleration_covariance: [0.0, 0.0, 0.0, 0.0, 0.0, 0.0, 0.0, 0.0, 0.0]
---
header: 
  seq: 64
  stamp: 
    secs: 7
    nsecs: 100000000
  frame_id: "imu_link"
orientation: 
  x: -0.37297149970186927
  y: -0.011225482647407498
  z: -0.004457190227539687
  w: 0.927764184696061
orientation_covariance: [0.0, 0.0, 0.0, 0.0, 0.0, 0.0, 0.0, 0.0, 0.0]
angular_velocity: 
  x: -2.430160222211271
  y: 0.2085798092165027
  z: 0.16786989413270975
angular_velocity_covariance: [0.0, 0.0, 0.0, 0.0, 0.0, 0.0, 0.0, 0.0, 0.0]
linear_acceleration: 
  x: 1.0210644238030342
  y: 25.04408441669177
  z: -21.963266936272248
linear_acceleration_covariance: [0.0, 0.0, 0.0, 0.0, 0.0, 0.0, 0.0, 0.0, 0.0]
---
header: 
  seq: 65
  stamp: 
    secs: 7
    nsecs: 200000000
  frame_id: "imu_link"
orientation: 
  x: -0.33084328377870553
  y: -0.013961694237948102
  z: -0.004895773117112007
  w: 0.9435697240151968
orientation_covariance: [0.0, 0.0, 0.0, 0.0, 0.0, 0.0, 0.0, 0.0, 0.0]
angular_velocity: 
  x: 1.2272635954211462
  y: -0.24555630733275302
  z: -0.19419422944090903
angular_velocity_covariance: [0.0, 0.0, 0.0, 0.0, 0.0, 0.0, 0.0, 0.0, 0.0]
linear_acceleration: 
  x: 10.414420639548242
  y: -4.977945451985738
  z: 7.0662235986967765
linear_acceleration_covariance: [0.0, 0.0, 0.0, 0.0, 0.0, 0.0, 0.0, 0.0, 0.0]
---
header: 
  seq: 66
  stamp: 
    secs: 7
    nsecs: 300000000
  frame_id: "imu_link"
orientation: 
  x: -0.2736727641602749
  y: -0.017694005237826094
  z: -0.005024556875895304
  w: 0.9616469696118838
orientation_covariance: [0.0, 0.0, 0.0, 0.0, 0.0, 0.0, 0.0, 0.0, 0.0]
angular_velocity: 
  x: 1.5671307303192232
  y: -0.05144762203849209
  z: -0.02356412121193804
angular_velocity_covariance: [0.0, 0.0, 0.0, 0.0, 0.0, 0.0, 0.0, 0.0, 0.0]
linear_acceleration: 
  x: 2.675537649754521
  y: -65.93967764941438
  z: 71.06430441295832
linear_acceleration_covariance: [0.0, 0.0, 0.0, 0.0, 0.0, 0.0, 0.0, 0.0, 0.0]
---
header: 
  seq: 67
  stamp: 
    secs: 7
    nsecs: 400000000
  frame_id: "imu_link"
orientation: 
  x: -0.21731233439149375
  y: -0.021842177855186225
  z: -0.004885955541356253
  w: 0.9758454775354087
orientation_covariance: [0.0, 0.0, 0.0, 0.0, 0.0, 0.0, 0.0, 0.0, 0.0]
angular_velocity: 
  x: -0.8304619594657672
  y: 0.47753376273478726
  z: 0.22983068846429222
angular_velocity_covariance: [0.0, 0.0, 0.0, 0.0, 0.0, 0.0, 0.0, 0.0, 0.0]
linear_acceleration: 
  x: -0.8116966686552298
  y: 39.14731762869856
  z: -52.6445653967492
linear_acceleration_covariance: [0.0, 0.0, 0.0, 0.0, 0.0, 0.0, 0.0, 0.0, 0.0]
---
header: 
  seq: 68
  stamp: 
    secs: 7
    nsecs: 500000000
  frame_id: "imu_link"
orientation: 
  x: -0.1577956608794319
  y: -0.02617372913419174
  z: -0.004233032369414396
  w: 0.9871157717045113
orientation_covariance: [0.0, 0.0, 0.0, 0.0, 0.0, 0.0, 0.0, 0.0, 0.0]
angular_velocity: 
  x: 0.42678137734514227
  y: -1.885502986126897
  z: -0.6448451063452438
angular_velocity_covariance: [0.0, 0.0, 0.0, 0.0, 0.0, 0.0, 0.0, 0.0, 0.0]
linear_acceleration: 
  x: -5.838172724036402
  y: 16.279714815676964
  z: -12.678405834939008
linear_acceleration_covariance: [0.0, 0.0, 0.0, 0.0, 0.0, 0.0, 0.0, 0.0, 0.0]
---
header: 
  seq: 69
  stamp: 
    secs: 7
    nsecs: 600000000
  frame_id: "imu_link"
orientation: 
  x: -0.22332761258442133
  y: -0.020947231274596013
  z: -0.00480545768354063
  w: 0.9745064897350468
orientation_covariance: [0.0, 0.0, 0.0, 0.0, 0.0, 0.0, 0.0, 0.0, 0.0]
angular_velocity: 
  x: -0.773290655897563
  y: 0.09906086703379108
  z: 0.052986639925586804
angular_velocity_covariance: [0.0, 0.0, 0.0, 0.0, 0.0, 0.0, 0.0, 0.0, 0.0]
linear_acceleration: 
  x: 0.9085613121584115
  y: -22.074248048620642
  z: 36.38586508300621
linear_acceleration_covariance: [0.0, 0.0, 0.0, 0.0, 0.0, 0.0, 0.0, 0.0, 0.0]
---
header: 
  seq: 70
  stamp: 
    secs: 7
    nsecs: 700000000
  frame_id: "imu_link"
orientation: 
  x: -0.29687048329485166
  y: -0.016153783765382318
  z: -0.005027216087635402
  w: 0.9547678767725433
orientation_covariance: [0.0, 0.0, 0.0, 0.0, 0.0, 0.0, 0.0, 0.0, 0.0]
angular_velocity: 
  x: -1.2282798778573396
  y: 0.07829915595076681
  z: 0.0447088604152931
angular_velocity_covariance: [0.0, 0.0, 0.0, 0.0, 0.0, 0.0, 0.0, 0.0, 0.0]
linear_acceleration: 
  x: 0.006553184367077136
  y: -5.838604203813954
  z: 9.113792609705794
linear_acceleration_covariance: [0.0, 0.0, 0.0, 0.0, 0.0, 0.0, 0.0, 0.0, 0.0]
---
header: 
  seq: 71
  stamp: 
    secs: 7
    nsecs: 800000000
  frame_id: "imu_link"
orientation: 
  x: -0.3704629261131492
  y: -0.01134991178108086
  z: -0.004402608298167407
  w: 0.9287674719317092
orientation_covariance: [0.0, 0.0, 0.0, 0.0, 0.0, 0.0, 0.0, 0.0, 0.0]
angular_velocity: 
  x: -1.2469785479366553
  y: 0.14286698203673043
  z: 0.052651992841740075
angular_velocity_covariance: [0.0, 0.0, 0.0, 0.0, 0.0, 0.0, 0.0, 0.0, 0.0]
linear_acceleration: 
  x: -7.469778487355002
  y: -5.393599380671064
  z: 6.892066497876314
linear_acceleration_covariance: [0.0, 0.0, 0.0, 0.0, 0.0, 0.0, 0.0, 0.0, 0.0]
---
header: 
  seq: 72
  stamp: 
    secs: 7
    nsecs: 900000000
  frame_id: "imu_link"
orientation: 
  x: -0.3258767187726582
  y: -0.014284157155369457
  z: -0.004924122935778037
  w: 0.9452915317665973
orientation_covariance: [0.0, 0.0, 0.0, 0.0, 0.0, 0.0, 0.0, 0.0, 0.0]
angular_velocity: 
  x: 1.2117752542824287
  y: -0.15645019547079214
  z: -0.11986420661175173
angular_velocity_covariance: [0.0, 0.0, 0.0, 0.0, 0.0, 0.0, 0.0, 0.0, 0.0]
linear_acceleration: 
  x: 6.278569558088939
  y: -4.427083077247964
  z: 5.709012139372665
linear_acceleration_covariance: [0.0, 0.0, 0.0, 0.0, 0.0, 0.0, 0.0, 0.0, 0.0]
---
header: 
  seq: 73
  stamp: 
    secs: 8
    nsecs:         0
  frame_id: "imu_link"
orientation: 
  x: -0.271026721411006
  y: -0.017857973199854923
  z: -0.005062864542704259
  w: 0.9623928389576766
orientation_covariance: [0.0, 0.0, 0.0, 0.0, 0.0, 0.0, 0.0, 0.0, 0.0]
angular_velocity: 
  x: 2.582312147845151
  y: -0.15875608056076526
  z: -0.14468362474362867
angular_velocity_covariance: [0.0, 0.0, 0.0, 0.0, 0.0, 0.0, 0.0, 0.0, 0.0]
linear_acceleration: 
  x: 0.7009706671908561
  y: -85.50507717678501
  z: 75.76242381286352
linear_acceleration_covariance: [0.0, 0.0, 0.0, 0.0, 0.0, 0.0, 0.0, 0.0, 0.0]
---
header: 
  seq: 74
  stamp: 
    secs: 8
    nsecs: 100000000
  frame_id: "imu_link"
orientation: 
  x: -0.21531491682565074
  y: -0.02153159874124369
  z: -0.004748865565916369
  w: 0.9762957160224796
orientation_covariance: [0.0, 0.0, 0.0, 0.0, 0.0, 0.0, 0.0, 0.0, 0.0]
angular_velocity: 
  x: 1.1690636498629585
  y: -0.06743027832052763
  z: -0.031652391685074735
angular_velocity_covariance: [0.0, 0.0, 0.0, 0.0, 0.0, 0.0, 0.0, 0.0, 0.0]
linear_acceleration: 
  x: 0.005176217991736731
  y: -0.08496739103848672
  z: 0.005698026288637692
linear_acceleration_covariance: [0.0, 0.0, 0.0, 0.0, 0.0, 0.0, 0.0, 0.0, 0.0]
---
header: 
  seq: 75
  stamp: 
    secs: 8
    nsecs: 200000000
  frame_id: "imu_link"
orientation: 
  x: -0.15832537873662375
  y: -0.02558615674209852
  z: -0.004130669239089122
  w: 0.9870467874435894
orientation_covariance: [0.0, 0.0, 0.0, 0.0, 0.0, 0.0, 0.0, 0.0, 0.0]
angular_velocity: 
  x: 1.5504230837828556
  y: 0.0009192569138835446
  z: -0.020746463659882815
angular_velocity_covariance: [0.0, 0.0, 0.0, 0.0, 0.0, 0.0, 0.0, 0.0, 0.0]
linear_acceleration: 
  x: 0.7909295152215783
  y: -12.752700245204936
  z: 20.074041793438454
linear_acceleration_covariance: [0.0, 0.0, 0.0, 0.0, 0.0, 0.0, 0.0, 0.0, 0.0]
---
header: 
  seq: 76
  stamp: 
    secs: 8
    nsecs: 300000000
  frame_id: "imu_link"
orientation: 
  x: -0.2278114422735603
  y: -0.02070224789827217
  z: -0.004844934336228696
  w: 0.9734731071336672
orientation_covariance: [0.0, 0.0, 0.0, 0.0, 0.0, 0.0, 0.0, 0.0, 0.0]
angular_velocity: 
  x: -1.540079645605389
  y: 0.08499952621660133
  z: 0.04200720200289721
angular_velocity_covariance: [0.0, 0.0, 0.0, 0.0, 0.0, 0.0, 0.0, 0.0, 0.0]
linear_acceleration: 
  x: -0.17879550682978435
  y: -0.2159710510912376
  z: -0.05722827540627762
linear_acceleration_covariance: [0.0, 0.0, 0.0, 0.0, 0.0, 0.0, 0.0, 0.0, 0.0]
---
header: 
  seq: 77
  stamp: 
    secs: 8
    nsecs: 400000000
  frame_id: "imu_link"
orientation: 
  x: -0.2997676835149862
  y: -0.015916292103939772
  z: -0.005001062846989588
  w: 0.9538663412324191
orientation_covariance: [0.0, 0.0, 0.0, 0.0, 0.0, 0.0, 0.0, 0.0, 0.0]
angular_velocity: 
  x: -2.5263082238327264
  y: 0.19048609352598048
  z: 0.13845682599148007
angular_velocity_covariance: [0.0, 0.0, 0.0, 0.0, 0.0, 0.0, 0.0, 0.0, 0.0]
linear_acceleration: 
  x: -0.3157838774382802
  y: 24.231374050145376
  z: -25.35059309103264
linear_acceleration_covariance: [0.0, 0.0, 0.0, 0.0, 0.0, 0.0, 0.0, 0.0, 0.0]
---
header: 
  seq: 78
  stamp: 
    secs: 8
    nsecs: 500000000
  frame_id: "imu_link"
orientation: 
  x: -0.37270064837766714
  y: -0.011428677523385685
  z: -0.004398472737354421
  w: 0.9278708236961176
orientation_covariance: [0.0, 0.0, 0.0, 0.0, 0.0, 0.0, 0.0, 0.0, 0.0]
angular_velocity: 
  x: -1.1553220744175003
  y: 0.2740531870744397
  z: 0.23023568879951695
angular_velocity_covariance: [0.0, 0.0, 0.0, 0.0, 0.0, 0.0, 0.0, 0.0, 0.0]
linear_acceleration: 
  x: -0.5143199244677781
  y: -7.0901201874752315
  z: 11.126129928275716
linear_acceleration_covariance: [0.0, 0.0, 0.0, 0.0, 0.0, 0.0, 0.0, 0.0, 0.0]
---
header: 
  seq: 79
  stamp: 
    secs: 8
    nsecs: 600000000
  frame_id: "imu_link"
orientation: 
  x: -0.3286641978181404
  y: -0.014040270684058335
  z: -0.004887254840627077
  w: 0.9443298314740457
orientation_covariance: [0.0, 0.0, 0.0, 0.0, 0.0, 0.0, 0.0, 0.0, 0.0]
angular_velocity: 
  x: 1.1989261437725887
  y: -0.22045883812654318
  z: -0.1738156612958436
angular_velocity_covariance: [0.0, 0.0, 0.0, 0.0, 0.0, 0.0, 0.0, 0.0, 0.0]
linear_acceleration: 
  x: 8.448082185939683
  y: -2.8005858803168087
  z: 4.553770292142549
linear_acceleration_covariance: [0.0, 0.0, 0.0, 0.0, 0.0, 0.0, 0.0, 0.0, 0.0]
---
header: 
  seq: 80
  stamp: 
    secs: 8
    nsecs: 700000000
  frame_id: "imu_link"
orientation: 
  x: -0.2720949057700542
  y: -0.01779907493406467
  z: -0.005019543515046678
  w: 0.9620926979082511
orientation_covariance: [0.0, 0.0, 0.0, 0.0, 0.0, 0.0, 0.0, 0.0, 0.0]
angular_velocity: 
  x: 0.8991965858948769
  y: -0.05912003606617004
  z: -0.03343159760857552
angular_velocity_covariance: [0.0, 0.0, 0.0, 0.0, 0.0, 0.0, 0.0, 0.0, 0.0]
linear_acceleration: 
  x: 2.768698453448868
  y: -51.439792901699064
  z: 74.58915808117384
linear_acceleration_covariance: [0.0, 0.0, 0.0, 0.0, 0.0, 0.0, 0.0, 0.0, 0.0]
---
header: 
  seq: 81
  stamp: 
    secs: 8
    nsecs: 800000000
  frame_id: "imu_link"
orientation: 
  x: -0.21545046390843975
  y: -0.02221494728275517
  z: -0.00493552439228314
  w: 0.9762495758349069
orientation_covariance: [0.0, 0.0, 0.0, 0.0, 0.0, 0.0, 0.0, 0.0, 0.0]
angular_velocity: 
  x: 1.7770946146932463
  y: -0.1429459676384158
  z: -0.11737084751989897
angular_velocity_covariance: [0.0, 0.0, 0.0, 0.0, 0.0, 0.0, 0.0, 0.0, 0.0]
linear_acceleration: 
  x: 0.7881564490360429
  y: -34.00920111901206
  z: 41.87363722864291
linear_acceleration_covariance: [0.0, 0.0, 0.0, 0.0, 0.0, 0.0, 0.0, 0.0, 0.0]
---
header: 
  seq: 82
  stamp: 
    secs: 8
    nsecs: 900000000
  frame_id: "imu_link"
orientation: 
  x: -0.15795436938462915
  y: -0.02650352415272387
  z: -0.0043326448787479295
  w: 0.9870811560293028
orientation_covariance: [0.0, 0.0, 0.0, 0.0, 0.0, 0.0, 0.0, 0.0, 0.0]
angular_velocity: 
  x: 1.3584099475613793
  y: -0.022507049726616865
  z: -0.23154707970592847
angular_velocity_covariance: [0.0, 0.0, 0.0, 0.0, 0.0, 0.0, 0.0, 0.0, 0.0]
linear_acceleration: 
  x: 0.2540875572929841
  y: -32.29044506610428
  z: 55.32206148422693
linear_acceleration_covariance: [0.0, 0.0, 0.0, 0.0, 0.0, 0.0, 0.0, 0.0, 0.0]
---
header: 
  seq: 83
  stamp: 
    secs: 9
    nsecs:         0
  frame_id: "imu_link"
orientation: 
  x: -0.22478596322695507
  y: -0.020903409040301992
  z: -0.004823583072698799
  w: 0.9741719823896418
orientation_covariance: [0.0, 0.0, 0.0, 0.0, 0.0, 0.0, 0.0, 0.0, 0.0]
angular_velocity: 
  x: -1.5478187934774164
  y: 0.085710583257936
  z: 0.04168621255878545
angular_velocity_covariance: [0.0, 0.0, 0.0, 0.0, 0.0, 0.0, 0.0, 0.0, 0.0]
linear_acceleration: 
  x: -0.17735939836330544
  y: -0.21005605939541372
  z: -0.0640506218662722
linear_acceleration_covariance: [0.0, 0.0, 0.0, 0.0, 0.0, 0.0, 0.0, 0.0, 0.0]
---
header: 
  seq: 84
  stamp: 
    secs: 9
    nsecs: 100000000
  frame_id: "imu_link"
orientation: 
  x: -0.29768224346583266
  y: -0.016047757148400527
  z: -0.00500275840184374
  w: 0.9545170107567635
orientation_covariance: [0.0, 0.0, 0.0, 0.0, 0.0, 0.0, 0.0, 0.0, 0.0]
angular_velocity: 
  x: -2.8232833233028636
  y: 0.18312344809219933
  z: 0.12604199279802347
angular_velocity_covariance: [0.0, 0.0, 0.0, 0.0, 0.0, 0.0, 0.0, 0.0, 0.0]
linear_acceleration: 
  x: 0.9352416437057867
  y: 22.970495982559434
  z: -35.31679200868513
linear_acceleration_covariance: [0.0, 0.0, 0.0, 0.0, 0.0, 0.0, 0.0, 0.0, 0.0]
---
header: 
  seq: 85
  stamp: 
    secs: 9
    nsecs: 200000000
  frame_id: "imu_link"
orientation: 
  x: -0.36941178917050194
  y: -0.011600524418021193
  z: -0.0044563435541812736
  w: 0.9291827047772696
orientation_covariance: [0.0, 0.0, 0.0, 0.0, 0.0, 0.0, 0.0, 0.0, 0.0]
angular_velocity: 
  x: -1.4152903675569999
  y: 0.3723798370601074
  z: 0.25261663549548796
angular_velocity_covariance: [0.0, 0.0, 0.0, 0.0, 0.0, 0.0, 0.0, 0.0, 0.0]
linear_acceleration: 
  x: -11.543220200803676
  y: -44.95327010220021
  z: 39.042098036150136
linear_acceleration_covariance: [0.0, 0.0, 0.0, 0.0, 0.0, 0.0, 0.0, 0.0, 0.0]
---
header: 
  seq: 86
  stamp: 
    secs: 9
    nsecs: 300000000
  frame_id: "imu_link"
orientation: 
  x: -0.32759122163553117
  y: -0.013970415894253945
  z: -0.004845855119494664
  w: 0.9447038354295186
orientation_covariance: [0.0, 0.0, 0.0, 0.0, 0.0, 0.0, 0.0, 0.0, 0.0]
angular_velocity: 
  x: 1.1342665567389931
  y: -0.18196458841386842
  z: -0.14563889291772852
angular_velocity_covariance: [0.0, 0.0, 0.0, 0.0, 0.0, 0.0, 0.0, 0.0, 0.0]
linear_acceleration: 
  x: 4.767311747727738
  y: 1.7801019046489124
  z: -0.7810993171162792
linear_acceleration_covariance: [0.0, 0.0, 0.0, 0.0, 0.0, 0.0, 0.0, 0.0, 0.0]
---
header: 
  seq: 87
  stamp: 
    secs: 9
    nsecs: 400000000
  frame_id: "imu_link"
orientation: 
  x: -0.2727014963529326
  y: -0.018737630688598024
  z: -0.005326138537982916
  w: 0.9619014644605357
orientation_covariance: [0.0, 0.0, 0.0, 0.0, 0.0, 0.0, 0.0, 0.0, 0.0]
angular_velocity: 
  x: 0.14672082602052416
  y: -0.029986839927226745
  z: -0.023347863231135364
angular_velocity_covariance: [0.0, 0.0, 0.0, 0.0, 0.0, 0.0, 0.0, 0.0, 0.0]
linear_acceleration: 
  x: 3.6086217114419705
  y: -34.22517256079718
  z: 76.91481471374706
linear_acceleration_covariance: [0.0, 0.0, 0.0, 0.0, 0.0, 0.0, 0.0, 0.0, 0.0]
---
header: 
  seq: 88
  stamp: 
    secs: 9
    nsecs: 500000000
  frame_id: "imu_link"
orientation: 
  x: -0.2141396565728889
  y: -0.022248377154088183
  z: -0.004933756180096364
  w: 0.9765371857982724
orientation_covariance: [0.0, 0.0, 0.0, 0.0, 0.0, 0.0, 0.0, 0.0, 0.0]
angular_velocity: 
  x: 1.5948823318179866
  y: -0.10992433174800641
  z: -0.17595037923455015
angular_velocity_covariance: [0.0, 0.0, 0.0, 0.0, 0.0, 0.0, 0.0, 0.0, 0.0]
linear_acceleration: 
  x: 1.6028344067011533
  y: -33.38111624012654
  z: 43.424805131598944
linear_acceleration_covariance: [0.0, 0.0, 0.0, 0.0, 0.0, 0.0, 0.0, 0.0, 0.0]
---
header: 
  seq: 89
  stamp: 
    secs: 9
    nsecs: 600000000
  frame_id: "imu_link"
orientation: 
  x: -0.15765522403676968
  y: -0.02562970826261559
  z: -0.004191795879585161
  w: 0.9871526615653695
orientation_covariance: [0.0, 0.0, 0.0, 0.0, 0.0, 0.0, 0.0, 0.0, 0.0]
angular_velocity: 
  x: -0.3152667399939458
  y: -1.0425199718619444
  z: -0.5106897198352534
angular_velocity_covariance: [0.0, 0.0, 0.0, 0.0, 0.0, 0.0, 0.0, 0.0, 0.0]
linear_acceleration: 
  x: 1.0909291962870724
  y: 37.73152871026905
  z: -44.224286298857294
linear_acceleration_covariance: [0.0, 0.0, 0.0, 0.0, 0.0, 0.0, 0.0, 0.0, 0.0]
---
header: 
  seq: 90
  stamp: 
    secs: 9
    nsecs: 700000000
  frame_id: "imu_link"
orientation: 
  x: -0.2225230207738016
  y: -0.021053940847429793
  z: -0.004806879140108381
  w: 0.9746882223118465
orientation_covariance: [0.0, 0.0, 0.0, 0.0, 0.0, 0.0, 0.0, 0.0, 0.0]
angular_velocity: 
  x: -1.5477310709333452
  y: 0.08596310421090747
  z: 0.04116045225640332
angular_velocity_covariance: [0.0, 0.0, 0.0, 0.0, 0.0, 0.0, 0.0, 0.0, 0.0]
linear_acceleration: 
  x: -0.18655455239356483
  y: -0.2873752842741397
  z: -0.11599431097825885
linear_acceleration_covariance: [0.0, 0.0, 0.0, 0.0, 0.0, 0.0, 0.0, 0.0, 0.0]
---
header: 
  seq: 91
  stamp: 
    secs: 9
    nsecs: 800000000
  frame_id: "imu_link"
orientation: 
  x: -0.2966118463022741
  y: -0.016172447397481714
  z: -0.005021552097417783
  w: 0.9548479714555951
orientation_covariance: [0.0, 0.0, 0.0, 0.0, 0.0, 0.0, 0.0, 0.0, 0.0]
angular_velocity: 
  x: -1.4569276362641344
  y: 0.17484075690000392
  z: 0.10659795658088934
angular_velocity_covariance: [0.0, 0.0, 0.0, 0.0, 0.0, 0.0, 0.0, 0.0, 0.0]
linear_acceleration: 
  x: -1.5042500581014335
  y: -9.648407586865858
  z: 4.713653600821724
linear_acceleration_covariance: [0.0, 0.0, 0.0, 0.0, 0.0, 0.0, 0.0, 0.0, 0.0]
---
header: 
  seq: 92
  stamp: 
    secs: 9
    nsecs: 900000000
  frame_id: "imu_link"
orientation: 
  x: -0.37286195718434223
  y: -0.01142966369462881
  z: -0.004363569705129696
  w: 0.9278061666813375
orientation_covariance: [0.0, 0.0, 0.0, 0.0, 0.0, 0.0, 0.0, 0.0, 0.0]
angular_velocity: 
  x: -1.384415198831889
  y: 0.27431146363072045
  z: 0.23529628795357502
angular_velocity_covariance: [0.0, 0.0, 0.0, 0.0, 0.0, 0.0, 0.0, 0.0, 0.0]
linear_acceleration: 
  x: -2.797517940298948
  y: -10.593194548308638
  z: 4.76632290893644
linear_acceleration_covariance: [0.0, 0.0, 0.0, 0.0, 0.0, 0.0, 0.0, 0.0, 0.0]
---
header: 
  seq: 93
  stamp: 
    secs: 10
    nsecs:         0
  frame_id: "imu_link"
orientation: 
  x: -0.3264251143810534
  y: -0.014230978746695403
  z: -0.004913819274237253
  w: 0.9451031575047071
orientation_covariance: [0.0, 0.0, 0.0, 0.0, 0.0, 0.0, 0.0, 0.0, 0.0]
angular_velocity: 
  x: 1.2002916680417697
  y: 0.04397783535224661
  z: 0.037522099534270825
angular_velocity_covariance: [0.0, 0.0, 0.0, 0.0, 0.0, 0.0, 0.0, 0.0, 0.0]
linear_acceleration: 
  x: -3.076792334465358
  y: -3.5112245673404816
  z: 2.557729359403335
linear_acceleration_covariance: [0.0, 0.0, 0.0, 0.0, 0.0, 0.0, 0.0, 0.0, 0.0]
---
header: 
  seq: 94
  stamp: 
    secs: 10
    nsecs: 100000000
  frame_id: "imu_link"
orientation: 
  x: -0.27133314393848484
  y: -0.018783651456966217
  z: -0.00532237396565685
  w: 0.9622874683657532
orientation_covariance: [0.0, 0.0, 0.0, 0.0, 0.0, 0.0, 0.0, 0.0, 0.0]
angular_velocity: 
  x: -2.4407012552798673
  y: -1.2577133392520758
  z: -0.8044726107638798
angular_velocity_covariance: [0.0, 0.0, 0.0, 0.0, 0.0, 0.0, 0.0, 0.0, 0.0]
linear_acceleration: 
  x: 17.83007758492071
  y: 59.50968043264944
  z: -82.10016207085522
linear_acceleration_covariance: [0.0, 0.0, 0.0, 0.0, 0.0, 0.0, 0.0, 0.0, 0.0]
---
header: 
  seq: 95
  stamp: 
    secs: 10
    nsecs: 200000000
  frame_id: "imu_link"
orientation: 
  x: -0.21514125554002636
  y: -0.021546629260987073
  z: -0.004748031317583495
  w: 0.9763336720254802
orientation_covariance: [0.0, 0.0, 0.0, 0.0, 0.0, 0.0, 0.0, 0.0, 0.0]
angular_velocity: 
  x: 1.181174712706636
  y: -0.06890880655447397
  z: -0.03164284961210816
angular_velocity_covariance: [0.0, 0.0, 0.0, 0.0, 0.0, 0.0, 0.0, 0.0, 0.0]
linear_acceleration: 
  x: -0.169477546229302
  y: -0.2713022236060656
  z: 0.13592281401657225
linear_acceleration_covariance: [0.0, 0.0, 0.0, 0.0, 0.0, 0.0, 0.0, 0.0, 0.0]
---
header: 
  seq: 96
  stamp: 
    secs: 10
    nsecs: 300000000
  frame_id: "imu_link"
orientation: 
  x: -0.15885360445547894
  y: -0.02526357782863995
  z: -0.004066308060108902
  w: 0.9869704905039254
orientation_covariance: [0.0, 0.0, 0.0, 0.0, 0.0, 0.0, 0.0, 0.0, 0.0]
angular_velocity: 
  x: 1.1437319851802028
  y: -0.06682916267959704
  z: -0.022126804105785262
angular_velocity_covariance: [0.0, 0.0, 0.0, 0.0, 0.0, 0.0, 0.0, 0.0, 0.0]
linear_acceleration: 
  x: -0.09997179923499411
  y: -0.07763967006250505
  z: -0.08062370995453527
linear_acceleration_covariance: [0.0, 0.0, 0.0, 0.0, 0.0, 0.0, 0.0, 0.0, 0.0]
---
header: 
  seq: 97
  stamp: 
    secs: 10
