header: 
  seq: 0
  stamp: 
    secs: 0
    nsecs: 600000000
  frame_id: "imu_link"
orientation: 
  x: -0.17209355492568645
  y: -0.010593369686042952
  z: -0.0018209068997705926
  w: 0.9850219658311165
orientation_covariance: [0.0, 0.0, 0.0, 0.0, 0.0, 0.0, 0.0, 0.0, 0.0]
angular_velocity: 
  x: -0.696797279399746
  y: 2.102098230268845
  z: 0.7722877972034333
angular_velocity_covariance: [0.0, 0.0, 0.0, 0.0, 0.0, 0.0, 0.0, 0.0, 0.0]
linear_acceleration: 
  x: 9.37547601333004
  y: 11.687237723727087
  z: 5.642548864409139
linear_acceleration_covariance: [0.0, 0.0, 0.0, 0.0, 0.0, 0.0, 0.0, 0.0, 0.0]
---
header: 
  seq: 1
  stamp: 
    secs: 0
    nsecs: 700000000
  frame_id: "imu_link"
orientation: 
  x: -0.20671875362285314
  y: -0.008722540446573957
  z: -0.0018367493692633163
  w: 0.9783598011675083
orientation_covariance: [0.0, 0.0, 0.0, 0.0, 0.0, 0.0, 0.0, 0.0, 0.0]
angular_velocity: 
  x: -0.5926427201037859
  y: 1.0787001332894084
  z: 0.4811563359025432
angular_velocity_covariance: [0.0, 0.0, 0.0, 0.0, 0.0, 0.0, 0.0, 0.0, 0.0]
linear_acceleration: 
  x: -11.804592187840267
  y: -8.068543691889118
  z: 7.226680397419483
linear_acceleration_covariance: [0.0, 0.0, 0.0, 0.0, 0.0, 0.0, 0.0, 0.0, 0.0]
---
header: 
  seq: 2
  stamp: 
    secs: 0
    nsecs: 800000000
  frame_id: "imu_link"
orientation: 
  x: -0.2425839158655463
  y: -0.009682464758628948
  z: -0.002458007741824529
  w: 0.9700789925761081
orientation_covariance: [0.0, 0.0, 0.0, 0.0, 0.0, 0.0, 0.0, 0.0, 0.0]
angular_velocity: 
  x: -0.7770754806305594
  y: -0.02793225269181823
  z: 0.004925171778174079
angular_velocity_covariance: [0.0, 0.0, 0.0, 0.0, 0.0, 0.0, 0.0, 0.0, 0.0]
linear_acceleration: 
  x: 0.3904072250901637
  y: -4.317662853086875
  z: 8.66153040645947
linear_acceleration_covariance: [0.0, 0.0, 0.0, 0.0, 0.0, 0.0, 0.0, 0.0, 0.0]
---
header: 
  seq: 3
  stamp: 
    secs: 0
    nsecs: 900000000
  frame_id: "imu_link"
orientation: 
  x: -0.2774248870360881
  y: -0.010988357923402218
  z: -0.003181684153668281
  w: 0.9606792206189887
orientation_covariance: [0.0, 0.0, 0.0, 0.0, 0.0, 0.0, 0.0, 0.0, 0.0]
angular_velocity: 
  x: -0.681948939237926
  y: 0.024352840108597704
  z: 0.017184030827662757
angular_velocity_covariance: [0.0, 0.0, 0.0, 0.0, 0.0, 0.0, 0.0, 0.0, 0.0]
linear_acceleration: 
  x: -0.7927551282150976
  y: -17.03265970344911
  z: 22.307605157371672
linear_acceleration_covariance: [0.0, 0.0, 0.0, 0.0, 0.0, 0.0, 0.0, 0.0, 0.0]
---
header: 
  seq: 4
  stamp: 
    secs: 1
    nsecs:         0
  frame_id: "imu_link"
orientation: 
  x: -0.3125682198952756
  y: -0.012241203193884494
  z: -0.0040271378346702
  w: 0.9498078979544893
orientation_covariance: [0.0, 0.0, 0.0, 0.0, 0.0, 0.0, 0.0, 0.0, 0.0]
angular_velocity: 
  x: -0.6669898352241181
  y: -0.03018351814325087
  z: -0.022199998465052263
angular_velocity_covariance: [0.0, 0.0, 0.0, 0.0, 0.0, 0.0, 0.0, 0.0, 0.0]
linear_acceleration: 
  x: -0.5312386877223525
  y: -15.899022977711887
  z: 19.43921721822752
linear_acceleration_covariance: [0.0, 0.0, 0.0, 0.0, 0.0, 0.0, 0.0, 0.0, 0.0]
---
header: 
  seq: 5
  stamp: 
    secs: 1
    nsecs: 100000000
  frame_id: "imu_link"
orientation: 
  x: -0.3441597469804494
  y: -0.011739925846905773
  z: -0.004312983669206208
  w: 0.9388278015010693
orientation_covariance: [0.0, 0.0, 0.0, 0.0, 0.0, 0.0, 0.0, 0.0, 0.0]
angular_velocity: 
  x: -0.5288974118935869
  y: 0.007991407284800994
  z: 0.011380921121381834
angular_velocity_covariance: [0.0, 0.0, 0.0, 0.0, 0.0, 0.0, 0.0, 0.0, 0.0]
linear_acceleration: 
  x: 0.26985266095291277
  y: -4.577622625040924
  z: 7.602392726116974
linear_acceleration_covariance: [0.0, 0.0, 0.0, 0.0, 0.0, 0.0, 0.0, 0.0, 0.0]
---
header: 
  seq: 6
  stamp: 
    secs: 1
    nsecs: 200000000
  frame_id: "imu_link"
orientation: 
  x: -0.3719039250957084
  y: -0.010952317136368444
  z: -0.004394071157052609
  w: 0.9281962127623754
orientation_covariance: [0.0, 0.0, 0.0, 0.0, 0.0, 0.0, 0.0, 0.0, 0.0]
angular_velocity: 
  x: -0.4798348488142117
  y: 0.0065286105098702
  z: 0.006441171502896799
angular_velocity_covariance: [0.0, 0.0, 0.0, 0.0, 0.0, 0.0, 0.0, 0.0, 0.0]
linear_acceleration: 
  x: 0.1713490149471658
  y: -8.509394389679862
  z: 6.039743018984115
linear_acceleration_covariance: [0.0, 0.0, 0.0, 0.0, 0.0, 0.0, 0.0, 0.0, 0.0]
---
header: 
  seq: 7
  stamp: 
    secs: 1
    nsecs: 300000000
  frame_id: "imu_link"
orientation: 
  x: -0.3996314825960097
  y: -0.010187901287982293
  z: -0.00444148642107266
  w: 0.9166085085704981
orientation_covariance: [0.0, 0.0, 0.0, 0.0, 0.0, 0.0, 0.0, 0.0, 0.0]
angular_velocity: 
  x: -0.9622761943803522
  y: 0.0172749390546623
  z: 0.01857908514577683
angular_velocity_covariance: [0.0, 0.0, 0.0, 0.0, 0.0, 0.0, 0.0, 0.0, 0.0]
linear_acceleration: 
  x: 0.18351397514780943
  y: -11.049486360227867
  z: 9.8151804052581
linear_acceleration_covariance: [0.0, 0.0, 0.0, 0.0, 0.0, 0.0, 0.0, 0.0, 0.0]
---
header: 
  seq: 8
  stamp: 
    secs: 1
    nsecs: 400000000
  frame_id: "imu_link"
orientation: 
  x: -0.42813825112015647
  y: -0.009397609864539087
  z: -0.004456352149934329
  w: 0.9036533980360631
orientation_covariance: [0.0, 0.0, 0.0, 0.0, 0.0, 0.0, 0.0, 0.0, 0.0]
angular_velocity: 
  x: -1.0497862858725384
  y: 0.013017607701688562
  z: 0.020007166828098003
angular_velocity_covariance: [0.0, 0.0, 0.0, 0.0, 0.0, 0.0, 0.0, 0.0, 0.0]
linear_acceleration: 
  x: 0.2571496974036381
  y: -6.497173323807805
  z: 8.807408908310363
linear_acceleration_covariance: [0.0, 0.0, 0.0, 0.0, 0.0, 0.0, 0.0, 0.0, 0.0]
---
header: 
  seq: 9
  stamp: 
    secs: 1
    nsecs: 500000000
  frame_id: "imu_link"
orientation: 
  x: -0.3893809570434689
  y: -0.011010967836175221
  z: -0.004655359432694447
  w: 0.9209992163448216
orientation_covariance: [0.0, 0.0, 0.0, 0.0, 0.0, 0.0, 0.0, 0.0, 0.0]
angular_velocity: 
  x: 0.2685674690394054
  y: -0.028837879005234112
  z: -0.029694709659657394
angular_velocity_covariance: [0.0, 0.0, 0.0, 0.0, 0.0, 0.0, 0.0, 0.0, 0.0]
linear_acceleration: 
  x: 0.4283673236305614
  y: 75.07175528708807
  z: -87.82035324065721
linear_acceleration_covariance: [0.0, 0.0, 0.0, 0.0, 0.0, 0.0, 0.0, 0.0, 0.0]
---
header: 
  seq: 10
  stamp: 
    secs: 1
    nsecs: 600000000
  frame_id: "imu_link"
orientation: 
  x: -0.3377700060648793
  y: -0.013136860369818738
  z: -0.004715214896177169
  w: 0.9411251843676472
orientation_covariance: [0.0, 0.0, 0.0, 0.0, 0.0, 0.0, 0.0, 0.0, 0.0]
angular_velocity: 
  x: -0.6040335665153231
  y: -0.03914719866899397
  z: -0.03211326639437902
angular_velocity_covariance: [0.0, 0.0, 0.0, 0.0, 0.0, 0.0, 0.0, 0.0, 0.0]
linear_acceleration: 
  x: 0.547121357288983
  y: 68.42465302323633
  z: -82.0576295257
linear_acceleration_covariance: [0.0, 0.0, 0.0, 0.0, 0.0, 0.0, 0.0, 0.0, 0.0]
---
header: 
  seq: 11
  stamp: 
    secs: 1
    nsecs: 700000000
  frame_id: "imu_link"
orientation: 
  x: -0.28446941570567064
  y: -0.01515394877755395
  z: -0.0044963564576192125
  w: 0.9585547935006781
orientation_covariance: [0.0, 0.0, 0.0, 0.0, 0.0, 0.0, 0.0, 0.0, 0.0]
angular_velocity: 
  x: 1.838517067501796
  y: -0.03635292691501284
  z: -0.023710779837900788
angular_velocity_covariance: [0.0, 0.0, 0.0, 0.0, 0.0, 0.0, 0.0, 0.0, 0.0]
linear_acceleration: 
  x: -0.05419670621166378
  y: -52.44012333223978
  z: 52.848007224131074
linear_acceleration_covariance: [0.0, 0.0, 0.0, 0.0, 0.0, 0.0, 0.0, 0.0, 0.0]
---
header: 
  seq: 12
  stamp: 
    secs: 1
    nsecs: 800000000
  frame_id: "imu_link"
orientation: 
  x: -0.22572882252249787
  y: -0.017400517995999756
  z: -0.0040440810354606
  w: 0.9740263682594307
orientation_covariance: [0.0, 0.0, 0.0, 0.0, 0.0, 0.0, 0.0, 0.0, 0.0]
angular_velocity: 
  x: 0.36127460662347366
  y: -0.031255435650854854
  z: -0.011944020467619488
angular_velocity_covariance: [0.0, 0.0, 0.0, 0.0, 0.0, 0.0, 0.0, 0.0, 0.0]
linear_acceleration: 
  x: 0.6035566271210269
  y: -22.456668772793236
  z: 41.07538018166162
linear_acceleration_covariance: [0.0, 0.0, 0.0, 0.0, 0.0, 0.0, 0.0, 0.0, 0.0]
---
header: 
  seq: 13
  stamp: 
    secs: 1
    nsecs: 900000000
  frame_id: "imu_link"
orientation: 
  x: -0.29242275988816946
  y: -0.015229224937190639
  z: -0.004658467453693944
  w: 0.9561565242616825
orientation_covariance: [0.0, 0.0, 0.0, 0.0, 0.0, 0.0, 0.0, 0.0, 0.0]
angular_velocity: 
  x: 1.197661087358284
  y: 0.09326309059752069
  z: 0.06287998613418594
angular_velocity_covariance: [0.0, 0.0, 0.0, 0.0, 0.0, 0.0, 0.0, 0.0, 0.0]
linear_acceleration: 
  x: -0.6656891554931311
  y: -50.63084202779864
  z: 94.00531211092266
linear_acceleration_covariance: [0.0, 0.0, 0.0, 0.0, 0.0, 0.0, 0.0, 0.0, 0.0]
---
header: 
  seq: 14
  stamp: 
    secs: 2
    nsecs:         0
  frame_id: "imu_link"
orientation: 
  x: -0.3220528349628543
  y: -0.01340420366373817
  z: -0.004584847949706749
  w: 0.9466156970945537
orientation_covariance: [0.0, 0.0, 0.0, 0.0, 0.0, 0.0, 0.0, 0.0, 0.0]
angular_velocity: 
  x: -1.9508696518470143
  y: 0.04050708896717931
  z: 0.04665673918087702
angular_velocity_covariance: [0.0, 0.0, 0.0, 0.0, 0.0, 0.0, 0.0, 0.0, 0.0]
linear_acceleration: 
  x: -0.24154706382936053
  y: 7.355208886007992
  z: -28.44610539344754
linear_acceleration_covariance: [0.0, 0.0, 0.0, 0.0, 0.0, 0.0, 0.0, 0.0, 0.0]
---
header: 
  seq: 15
  stamp: 
    secs: 2
    nsecs: 100000000
  frame_id: "imu_link"
orientation: 
  x: -0.3751016599983283
  y: -0.011470091169779413
  z: -0.004640624603401407
  w: 0.9269010984341025
orientation_covariance: [0.0, 0.0, 0.0, 0.0, 0.0, 0.0, 0.0, 0.0, 0.0]
angular_velocity: 
  x: -1.1910579103862935
  y: 0.033600325585081775
  z: 0.03257463162975724
angular_velocity_covariance: [0.0, 0.0, 0.0, 0.0, 0.0, 0.0, 0.0, 0.0, 0.0]
linear_acceleration: 
  x: 0.1026872957829367
  y: -11.003859297185357
  z: -7.9839990992100525
linear_acceleration_covariance: [0.0, 0.0, 0.0, 0.0, 0.0, 0.0, 0.0, 0.0, 0.0]
---
header: 
  seq: 16
  stamp: 
    secs: 2
    nsecs: 200000000
  frame_id: "imu_link"
orientation: 
  x: -0.4318121693849227
  y: -0.009401584826749423
  z: -0.0044903507352899875
  w: 0.9019033747159982
orientation_covariance: [0.0, 0.0, 0.0, 0.0, 0.0, 0.0, 0.0, 0.0, 0.0]
angular_velocity: 
  x: -1.2037798681230858
  y: 0.06087656315550342
  z: 0.06824919799558815
angular_velocity_covariance: [0.0, 0.0, 0.0, 0.0, 0.0, 0.0, 0.0, 0.0, 0.0]
linear_acceleration: 
  x: -1.3284877284083132
  y: -6.593477378017603
  z: 3.3929971864198003
linear_acceleration_covariance: [0.0, 0.0, 0.0, 0.0, 0.0, 0.0, 0.0, 0.0, 0.0]
---
header: 
  seq: 17
  stamp: 
    secs: 2
    nsecs: 300000000
  frame_id: "imu_link"
orientation: 
  x: -0.38702912209644785
  y: -0.011079325146123874
  z: -0.004651001501203117
  w: 0.9219891948328869
orientation_covariance: [0.0, 0.0, 0.0, 0.0, 0.0, 0.0, 0.0, 0.0, 0.0]
angular_velocity: 
  x: 3.173335058829028
  y: -0.03038518465875447
  z: -0.03108654011047961
angular_velocity_covariance: [0.0, 0.0, 0.0, 0.0, 0.0, 0.0, 0.0, 0.0, 0.0]
linear_acceleration: 
  x: -0.10310514089844386
  y: -94.97748244861727
  z: 85.213465130446
linear_acceleration_covariance: [0.0, 0.0, 0.0, 0.0, 0.0, 0.0, 0.0, 0.0, 0.0]
---
header: 
  seq: 18
  stamp: 
    secs: 2
    nsecs: 400000000
  frame_id: "imu_link"
orientation: 
  x: -0.32845075011481584
  y: -0.013206042771245109
  z: -0.00459314474711037
  w: 0.944417602655028
orientation_covariance: [0.0, 0.0, 0.0, 0.0, 0.0, 0.0, 0.0, 0.0, 0.0]
angular_velocity: 
  x: 1.1444800349682012
  y: 0.004124886847016163
  z: 0.0032951931135661045
angular_velocity_covariance: [0.0, 0.0, 0.0, 0.0, 0.0, 0.0, 0.0, 0.0, 0.0]
linear_acceleration: 
  x: -1.772546571594433
  y: 68.33452721005983
  z: -96.75543967651126
linear_acceleration_covariance: [0.0, 0.0, 0.0, 0.0, 0.0, 0.0, 0.0, 0.0, 0.0]
---
header: 
  seq: 19
  stamp: 
    secs: 2
    nsecs: 500000000
  frame_id: "imu_link"
orientation: 
  x: -0.28389003294574516
  y: -0.015176777287562598
  z: -0.0044927460984722795
  w: 0.9587262017164869
orientation_covariance: [0.0, 0.0, 0.0, 0.0, 0.0, 0.0, 0.0, 0.0, 0.0]
angular_velocity: 
  x: -2.395646430699975
  y: -0.014985758024379753
  z: -0.00857067556569626
angular_velocity_covariance: [0.0, 0.0, 0.0, 0.0, 0.0, 0.0, 0.0, 0.0, 0.0]
linear_acceleration: 
  x: 0.42414845590109496
  y: 88.09420367770282
  z: -129.96537641670665
linear_acceleration_covariance: [0.0, 0.0, 0.0, 0.0, 0.0, 0.0, 0.0, 0.0, 0.0]
---
header: 
  seq: 20
  stamp: 
    secs: 2
    nsecs: 600000000
  frame_id: "imu_link"
orientation: 
  x: -0.24403144470336685
  y: -0.017227489468478505
  z: -0.004337558500434745
  w: 0.9696045859982597
orientation_covariance: [0.0, 0.0, 0.0, 0.0, 0.0, 0.0, 0.0, 0.0, 0.0]
angular_velocity: 
  x: 1.7309530065468812
  y: -0.04860358983990435
  z: -0.025244994965800044
angular_velocity_covariance: [0.0, 0.0, 0.0, 0.0, 0.0, 0.0, 0.0, 0.0, 0.0]
linear_acceleration: 
  x: 0.18776713336217357
  y: -19.752439838313272
  z: 48.95748318195686
linear_acceleration_covariance: [0.0, 0.0, 0.0, 0.0, 0.0, 0.0, 0.0, 0.0, 0.0]
---
header: 
  seq: 21
  stamp: 
    secs: 2
    nsecs: 700000000
  frame_id: "imu_link"
orientation: 
  x: -0.2980043103211543
  y: -0.015470079333070435
  z: -0.004833823423538825
  w: 0.9544269180123494
orientation_covariance: [0.0, 0.0, 0.0, 0.0, 0.0, 0.0, 0.0, 0.0, 0.0]
angular_velocity: 
  x: 1.340004187285111
  y: 0.04075845633174475
  z: 0.029872161253758512
angular_velocity_covariance: [0.0, 0.0, 0.0, 0.0, 0.0, 0.0, 0.0, 0.0, 0.0]
linear_acceleration: 
  x: 0.9233507882712888
  y: -68.09694399355467
  z: 147.34214656300855
linear_acceleration_covariance: [0.0, 0.0, 0.0, 0.0, 0.0, 0.0, 0.0, 0.0, 0.0]
---
header: 
  seq: 22
  stamp: 
    secs: 2
    nsecs: 800000000
  frame_id: "imu_link"
orientation: 
  x: -0.3180726336931362
  y: -0.013510783331057265
  z: -0.004533487383986354
  w: 0.9479592322043351
orientation_covariance: [0.0, 0.0, 0.0, 0.0, 0.0, 0.0, 0.0, 0.0, 0.0]
angular_velocity: 
  x: 1.160690453187001
  y: 0.14520824231563803
  z: 0.11023455920827173
angular_velocity_covariance: [0.0, 0.0, 0.0, 0.0, 0.0, 0.0, 0.0, 0.0, 0.0]
linear_acceleration: 
  x: -4.4862543387170595
  y: 68.81934849119256
  z: -84.45991521895976
linear_acceleration_covariance: [0.0, 0.0, 0.0, 0.0, 0.0, 0.0, 0.0, 0.0, 0.0]
---
header: 
  seq: 23
  stamp: 
    secs: 2
    nsecs: 900000000
  frame_id: "imu_link"
orientation: 
  x: -0.38903663191578763
  y: -0.011383748199230815
  z: -0.0048079139652483106
  w: 0.9211393994764632
orientation_covariance: [0.0, 0.0, 0.0, 0.0, 0.0, 0.0, 0.0, 0.0, 0.0]
angular_velocity: 
  x: 3.572647194467693
  y: 0.015295521327694184
  z: 0.015824503183821247
angular_velocity_covariance: [0.0, 0.0, 0.0, 0.0, 0.0, 0.0, 0.0, 0.0, 0.0]
linear_acceleration: 
  x: 0.7100577538872723
  y: -72.47866652008976
  z: 130.30444004179873
linear_acceleration_covariance: [0.0, 0.0, 0.0, 0.0, 0.0, 0.0, 0.0, 0.0, 0.0]
---
header: 
  seq: 24
  stamp: 
    secs: 3
    nsecs:         0
  frame_id: "imu_link"
orientation: 
  x: -0.4341204397778495
  y: -0.00938258858554852
  z: -0.004523016301642317
  w: 0.9007946231644903
orientation_covariance: [0.0, 0.0, 0.0, 0.0, 0.0, 0.0, 0.0, 0.0, 0.0]
angular_velocity: 
  x: -1.2186011653668294
  y: -0.013116405730152294
  z: -0.016121101031437525
angular_velocity_covariance: [0.0, 0.0, 0.0, 0.0, 0.0, 0.0, 0.0, 0.0, 0.0]
linear_acceleration: 
  x: 2.40067432728702
  y: -91.08042866426061
  z: 61.90487752080422
linear_acceleration_covariance: [0.0, 0.0, 0.0, 0.0, 0.0, 0.0, 0.0, 0.0, 0.0]
---
header: 
  seq: 25
  stamp: 
    secs: 3
    nsecs: 100000000
  frame_id: "imu_link"
orientation: 
  x: -0.4004134972083638
  y: -0.010973420162320762
  z: -0.004795765160356387
  w: 0.9162563047203743
orientation_covariance: [0.0, 0.0, 0.0, 0.0, 0.0, 0.0, 0.0, 0.0, 0.0]
angular_velocity: 
  x: -0.3569531347750169
  y: -0.0275220090707779
  z: -0.03007774862179845
angular_velocity_covariance: [0.0, 0.0, 0.0, 0.0, 0.0, 0.0, 0.0, 0.0, 0.0]
linear_acceleration: 
  x: 0.9094384899554332
  y: 36.46576388707735
  z: -21.666567463104947
linear_acceleration_covariance: [0.0, 0.0, 0.0, 0.0, 0.0, 0.0, 0.0, 0.0, 0.0]
---
header: 
  seq: 26
  stamp: 
    secs: 3
    nsecs: 200000000
  frame_id: "imu_link"
orientation: 
  x: -0.3388401398131703
  y: -0.013284265490369393
  z: -0.004772301394042502
  w: 0.9407380682640505
orientation_covariance: [0.0, 0.0, 0.0, 0.0, 0.0, 0.0, 0.0, 0.0, 0.0]
angular_velocity: 
  x: -0.4874136511158928
  y: 0.022419934254777202
  z: 0.014710945022218001
angular_velocity_covariance: [0.0, 0.0, 0.0, 0.0, 0.0, 0.0, 0.0, 0.0, 0.0]
linear_acceleration: 
  x: 0.9303966158316275
  y: 17.117015671374233
  z: 10.057866807782489
linear_acceleration_covariance: [0.0, 0.0, 0.0, 0.0, 0.0, 0.0, 0.0, 0.0, 0.0]
---
header: 
  seq: 27
  stamp: 
    secs: 3
    nsecs: 300000000
  frame_id: "imu_link"
orientation: 
  x: -0.280032250481442
  y: -0.015171212991172295
  z: -0.004425760250676593
  w: 0.9598605032153782
orientation_covariance: [0.0, 0.0, 0.0, 0.0, 0.0, 0.0, 0.0, 0.0, 0.0]
angular_velocity: 
  x: -0.6550508431590043
  y: 0.046331579299103684
  z: 0.02953761797255951
angular_velocity_covariance: [0.0, 0.0, 0.0, 0.0, 0.0, 0.0, 0.0, 0.0, 0.0]
linear_acceleration: 
  x: -1.3511903485612644
  y: 126.39680035198498
  z: -171.53279097267367
linear_acceleration_covariance: [0.0, 0.0, 0.0, 0.0, 0.0, 0.0, 0.0, 0.0, 0.0]
---
header: 
  seq: 28
  stamp: 
    secs: 3
    nsecs: 400000000
  frame_id: "imu_link"
orientation: 
  x: -0.22165430949320142
  y: -0.017301807640498667
  z: -0.003930329195699018
  w: 0.9749638798683142
orientation_covariance: [0.0, 0.0, 0.0, 0.0, 0.0, 0.0, 0.0, 0.0, 0.0]
angular_velocity: 
  x: -0.6449439255644207
  y: -0.02689389003967712
  z: -0.015530202819118677
angular_velocity_covariance: [0.0, 0.0, 0.0, 0.0, 0.0, 0.0, 0.0, 0.0, 0.0]
linear_acceleration: 
  x: 0.24453122395384802
  y: -30.637312199041286
  z: 30.81183340711381
linear_acceleration_covariance: [0.0, 0.0, 0.0, 0.0, 0.0, 0.0, 0.0, 0.0, 0.0]
---
header: 
  seq: 29
  stamp: 
    secs: 3
    nsecs: 500000000
  frame_id: "imu_link"
orientation: 
  x: -0.29353754754274375
  y: -0.015281557422949643
  z: -0.0046943762264289625
  w: 0.955813865256811
orientation_covariance: [0.0, 0.0, 0.0, 0.0, 0.0, 0.0, 0.0, 0.0, 0.0]
angular_velocity: 
  x: 0.6974776093192119
  y: 0.1231226960285966
  z: 0.08426014282896893
angular_velocity_covariance: [0.0, 0.0, 0.0, 0.0, 0.0, 0.0, 0.0, 0.0, 0.0]
linear_acceleration: 
  x: -0.3193213672289391
  y: -16.268775078624955
  z: 59.63991764842112
linear_acceleration_covariance: [0.0, 0.0, 0.0, 0.0, 0.0, 0.0, 0.0, 0.0, 0.0]
---
header: 
  seq: 30
  stamp: 
    secs: 3
    nsecs: 600000000
  frame_id: "imu_link"
orientation: 
  x: -0.3117861329283803
  y: -0.013662121592850393
  z: -0.004481075094747851
  w: 0.950043511484155
orientation_covariance: [0.0, 0.0, 0.0, 0.0, 0.0, 0.0, 0.0, 0.0, 0.0]
angular_velocity: 
  x: -0.7076514587749133
  y: 0.050752708801713724
  z: 0.018340137556282967
angular_velocity_covariance: [0.0, 0.0, 0.0, 0.0, 0.0, 0.0, 0.0, 0.0, 0.0]
linear_acceleration: 
  x: 1.6619168260251023
  y: -37.026443693467364
  z: 16.823749622817452
linear_acceleration_covariance: [0.0, 0.0, 0.0, 0.0, 0.0, 0.0, 0.0, 0.0, 0.0]
---
header: 
  seq: 31
  stamp: 
    secs: 3
    nsecs: 700000000
  frame_id: "imu_link"
orientation: 
  x: -0.3685432970204307
  y: -0.011547311655867755
  z: -0.0045751889671907815
  w: 0.9295276033882734
orientation_covariance: [0.0, 0.0, 0.0, 0.0, 0.0, 0.0, 0.0, 0.0, 0.0]
angular_velocity: 
  x: -1.0330959951835252
  y: 0.04269840530109183
  z: 0.039362493156923146
angular_velocity_covariance: [0.0, 0.0, 0.0, 0.0, 0.0, 0.0, 0.0, 0.0, 0.0]
linear_acceleration: 
  x: -0.5644318845053043
  y: -4.0175741428033565
  z: -36.08495690517756
linear_acceleration_covariance: [0.0, 0.0, 0.0, 0.0, 0.0, 0.0, 0.0, 0.0, 0.0]
---
header: 
  seq: 32
  stamp: 
    secs: 3
    nsecs: 800000000
  frame_id: "imu_link"
orientation: 
  x: -0.4327326323036141
  y: -0.00945015796344434
  z: -0.004522169403310521
  w: 0.9014614320301998
orientation_covariance: [0.0, 0.0, 0.0, 0.0, 0.0, 0.0, 0.0, 0.0, 0.0]
angular_velocity: 
  x: -1.036635933254658
  y: 0.03304991647260116
  z: 0.02591308559528237
angular_velocity_covariance: [0.0, 0.0, 0.0, 0.0, 0.0, 0.0, 0.0, 0.0, 0.0]
linear_acceleration: 
  x: -0.6663979414153729
  y: -9.611736836447857
  z: 6.4120176225051
linear_acceleration_covariance: [0.0, 0.0, 0.0, 0.0, 0.0, 0.0, 0.0, 0.0, 0.0]
---
header: 
  seq: 33
  stamp: 
    secs: 3
    nsecs: 900000000
  frame_id: "imu_link"
orientation: 
  x: -0.3910739717150816
  y: -0.0110273882924111
  z: -0.004686222011330973
  w: 0.9202812530295834
orientation_covariance: [0.0, 0.0, 0.0, 0.0, 0.0, 0.0, 0.0, 0.0, 0.0]
angular_velocity: 
  x: 2.956613680514004
  y: -0.02345696634476939
  z: -0.02445354153456953
angular_velocity_covariance: [0.0, 0.0, 0.0, 0.0, 0.0, 0.0, 0.0, 0.0, 0.0]
linear_acceleration: 
  x: -0.20747779810311454
  y: -57.65801301030925
  z: 55.748220917839774
linear_acceleration_covariance: [0.0, 0.0, 0.0, 0.0, 0.0, 0.0, 0.0, 0.0, 0.0]
---
header: 
  seq: 34
  stamp: 
    secs: 4
    nsecs:         0
  frame_id: "imu_link"
orientation: 
  x: -0.3310640474931755
  y: -0.013136464545356108
  z: -0.004608930136125434
  w: 0.9435055842546378
orientation_covariance: [0.0, 0.0, 0.0, 0.0, 0.0, 0.0, 0.0, 0.0, 0.0]
angular_velocity: 
  x: -0.23145684487001306
  y: 0.003147504653622784
  z: 0.003103248904924047
angular_velocity_covariance: [0.0, 0.0, 0.0, 0.0, 0.0, 0.0, 0.0, 0.0, 0.0]
linear_acceleration: 
  x: -1.1556218655886785
  y: 102.40387162975392
  z: -140.21574449932277
linear_acceleration_covariance: [0.0, 0.0, 0.0, 0.0, 0.0, 0.0, 0.0, 0.0, 0.0]
---
header: 
  seq: 35
  stamp: 
    secs: 4
    nsecs: 100000000
  frame_id: "imu_link"
orientation: 
  x: -0.2717020640766971
  y: -0.015534413280404221
  z: -0.004369210342409129
  w: 0.9622461121675057
orientation_covariance: [0.0, 0.0, 0.0, 0.0, 0.0, 0.0, 0.0, 0.0, 0.0]
angular_velocity: 
  x: 1.5584579150881663
  y: -0.07231118600557802
  z: -0.06446707334364778
angular_velocity_covariance: [0.0, 0.0, 0.0, 0.0, 0.0, 0.0, 0.0, 0.0, 0.0]
linear_acceleration: 
  x: 1.4628312527027225
  y: -84.15031244791183
  z: 107.43291740937052
linear_acceleration_covariance: [0.0, 0.0, 0.0, 0.0, 0.0, 0.0, 0.0, 0.0, 0.0]
---
header: 
  seq: 36
  stamp: 
    secs: 4
    nsecs: 200000000
  frame_id: "imu_link"
orientation: 
  x: -0.2288455261474068
  y: -0.01722115680373407
  z: -0.004049743653257476
  w: 0.9733019862802094
orientation_covariance: [0.0, 0.0, 0.0, 0.0, 0.0, 0.0, 0.0, 0.0, 0.0]
angular_velocity: 
  x: 1.2472635325005368
  y: -0.00017156543995809712
  z: -0.0011534114795964678
angular_velocity_covariance: [0.0, 0.0, 0.0, 0.0, 0.0, 0.0, 0.0, 0.0, 0.0]
linear_acceleration: 
  x: 0.13212990915023265
  y: 49.27041410360001
  z: -73.37098966767633
linear_acceleration_covariance: [0.0, 0.0, 0.0, 0.0, 0.0, 0.0, 0.0, 0.0, 0.0]
---
header: 
  seq: 37
  stamp: 
    secs: 4
    nsecs: 300000000
  frame_id: "imu_link"
orientation: 
  x: -0.29772650609100054
  y: -0.015318401371064851
  z: -0.004782862738530849
  w: 0.9545163164526339
orientation_covariance: [0.0, 0.0, 0.0, 0.0, 0.0, 0.0, 0.0, 0.0, 0.0]
angular_velocity: 
  x: -1.642354888426024
  y: 0.07435359999378874
  z: 0.05120085324974773
angular_velocity_covariance: [0.0, 0.0, 0.0, 0.0, 0.0, 0.0, 0.0, 0.0, 0.0]
linear_acceleration: 
  x: 0.2550067772673933
  y: 114.09596367502348
  z: -81.43289820808779
linear_acceleration_covariance: [0.0, 0.0, 0.0, 0.0, 0.0, 0.0, 0.0, 0.0, 0.0]
---
header: 
  seq: 38
  stamp: 
    secs: 4
    nsecs: 400000000
  frame_id: "imu_link"
orientation: 
  x: -0.3259237207286437
  y: -0.013310470033731795
  z: -0.004588838701503764
  w: 0.9452912261378765
orientation_covariance: [0.0, 0.0, 0.0, 0.0, 0.0, 0.0, 0.0, 0.0, 0.0]
angular_velocity: 
  x: -1.2030270325380759
  y: 0.08418151047416066
  z: 0.06669130914256811
angular_velocity_covariance: [0.0, 0.0, 0.0, 0.0, 0.0, 0.0, 0.0, 0.0, 0.0]
linear_acceleration: 
  x: -1.642631308496323
  y: 124.67990197833085
  z: -149.87542802013422
linear_acceleration_covariance: [0.0, 0.0, 0.0, 0.0, 0.0, 0.0, 0.0, 0.0, 0.0]
---
header: 
  seq: 39
  stamp: 
    secs: 4
    nsecs: 500000000
  frame_id: "imu_link"
orientation: 
  x: -0.376592309932108
  y: -0.01138086291202542
  z: -0.004626926551668883
  w: 0.9262976301438228
orientation_covariance: [0.0, 0.0, 0.0, 0.0, 0.0, 0.0, 0.0, 0.0, 0.0]
angular_velocity: 
  x: 1.2319940573542254
  y: -0.009679754188947063
  z: -0.009485052103407101
angular_velocity_covariance: [0.0, 0.0, 0.0, 0.0, 0.0, 0.0, 0.0, 0.0, 0.0]
linear_acceleration: 
  x: 1.5473241870216132
  y: -206.65286230449607
  z: 170.80714849324573
linear_acceleration_covariance: [0.0, 0.0, 0.0, 0.0, 0.0, 0.0, 0.0, 0.0, 0.0]
---
header: 
  seq: 40
  stamp: 
    secs: 4
    nsecs: 600000000
  frame_id: "imu_link"
orientation: 
  x: -0.43743112791269556
  y: -0.00943355677890781
  z: -0.0045897813536521295
  w: 0.8991907196177303
orientation_covariance: [0.0, 0.0, 0.0, 0.0, 0.0, 0.0, 0.0, 0.0, 0.0]
angular_velocity: 
  x: -5.937345131408014
  y: 0.04823029031855235
  z: 0.06007635193345913
angular_velocity_covariance: [0.0, 0.0, 0.0, 0.0, 0.0, 0.0, 0.0, 0.0, 0.0]
linear_acceleration: 
  x: -1.9685707285211338
  y: 163.82873581757892
  z: -157.67630245730797
linear_acceleration_covariance: [0.0, 0.0, 0.0, 0.0, 0.0, 0.0, 0.0, 0.0, 0.0]
---
header: 
  seq: 41
  stamp: 
    secs: 4
    nsecs: 700000000
  frame_id: "imu_link"
orientation: 
  x: -0.39350804128641037
  y: -0.011198054108710486
  z: -0.004793718428484972
  w: 0.9192404719608137
orientation_covariance: [0.0, 0.0, 0.0, 0.0, 0.0, 0.0, 0.0, 0.0, 0.0]
angular_velocity: 
  x: 1.807182532516569
  y: -0.015054145582655153
  z: -0.01606359964094683
angular_velocity_covariance: [0.0, 0.0, 0.0, 0.0, 0.0, 0.0, 0.0, 0.0, 0.0]
linear_acceleration: 
  x: -0.21741861348343194
  y: -28.091466952608172
  z: 57.449135411367145
linear_acceleration_covariance: [0.0, 0.0, 0.0, 0.0, 0.0, 0.0, 0.0, 0.0, 0.0]
---
header: 
  seq: 42
  stamp: 
    secs: 4
    nsecs: 800000000
  frame_id: "imu_link"
orientation: 
  x: -0.33949035774052616
  y: -0.013255934180046983
  z: -0.00478608375780688
  w: 0.9405039450276045
orientation_covariance: [0.0, 0.0, 0.0, 0.0, 0.0, 0.0, 0.0, 0.0, 0.0]
angular_velocity: 
  x: 0.37958052610192256
  y: -0.036113903054207974
  z: -0.030025861676379908
angular_velocity_covariance: [0.0, 0.0, 0.0, 0.0, 0.0, 0.0, 0.0, 0.0, 0.0]
linear_acceleration: 
  x: 0.5685241379573143
  y: 25.777477410570675
  z: -11.501431834997456
linear_acceleration_covariance: [0.0, 0.0, 0.0, 0.0, 0.0, 0.0, 0.0, 0.0, 0.0]
---
header: 
  seq: 43
  stamp: 
    secs: 4
    nsecs: 900000000
  frame_id: "imu_link"
orientation: 
  x: -0.2879284450914473
  y: -0.015167609029772265
  z: -0.004561797042692606
  w: 0.9575209366647199
orientation_covariance: [0.0, 0.0, 0.0, 0.0, 0.0, 0.0, 0.0, 0.0, 0.0]
angular_velocity: 
  x: 0.935462207179032
  y: 0.0015572002706360118
  z: 0.002522762127974993
angular_velocity_covariance: [0.0, 0.0, 0.0, 0.0, 0.0, 0.0, 0.0, 0.0, 0.0]
linear_acceleration: 
  x: -0.03053921559850492
  y: -19.118413814484594
  z: 30.36564078637844
linear_acceleration_covariance: [0.0, 0.0, 0.0, 0.0, 0.0, 0.0, 0.0, 0.0, 0.0]
---
header: 
  seq: 44
  stamp: 
    secs: 5
    nsecs:         0
  frame_id: "imu_link"
orientation: 
  x: -0.22963732701757858
  y: -0.017424851895591578
  z: -0.004114119719989997
  w: 0.9731115797253508
orientation_covariance: [0.0, 0.0, 0.0, 0.0, 0.0, 0.0, 0.0, 0.0, 0.0]
angular_velocity: 
  x: 1.9988840985542153
  y: -0.04737610177785147
  z: -0.08512061158116956
angular_velocity_covariance: [0.0, 0.0, 0.0, 0.0, 0.0, 0.0, 0.0, 0.0, 0.0]
linear_acceleration: 
  x: 2.0946609513484344
  y: -63.89475823866678
  z: 75.61864838281682
linear_acceleration_covariance: [0.0, 0.0, 0.0, 0.0, 0.0, 0.0, 0.0, 0.0, 0.0]
---
header: 
  seq: 45
  stamp: 
    secs: 5
    nsecs: 100000000
  frame_id: "imu_link"
orientation: 
  x: -0.2959712036319049
  y: -0.015224120127620306
  z: -0.004719490151965401
  w: 0.9550638717906392
orientation_covariance: [0.0, 0.0, 0.0, 0.0, 0.0, 0.0, 0.0, 0.0, 0.0]
angular_velocity: 
  x: 4.0964694686424625
  y: 0.17657129596828103
  z: 0.12303559402144698
angular_velocity_covariance: [0.0, 0.0, 0.0, 0.0, 0.0, 0.0, 0.0, 0.0, 0.0]
linear_acceleration: 
  x: -0.48756469893961546
  y: -63.00782413989787
  z: 145.57656196494878
linear_acceleration_covariance: [0.0, 0.0, 0.0, 0.0, 0.0, 0.0, 0.0, 0.0, 0.0]
---
header: 
  seq: 46
  stamp: 
    secs: 5
    nsecs: 200000000
  frame_id: "imu_link"
orientation: 
  x: -0.3031256017124868
  y: -0.013448451545943403
  z: -0.004274095099240093
  w: 0.9528461265327902
orientation_covariance: [0.0, 0.0, 0.0, 0.0, 0.0, 0.0, 0.0, 0.0, 0.0]
angular_velocity: 
  x: 3.698761594157658
  y: 0.12403133734904508
  z: 0.0873793427371137
angular_velocity_covariance: [0.0, 0.0, 0.0, 0.0, 0.0, 0.0, 0.0, 0.0, 0.0]
linear_acceleration: 
  x: -5.623120654479831
  y: -225.81058382137348
  z: 172.62868258069392
linear_acceleration_covariance: [0.0, 0.0, 0.0, 0.0, 0.0, 0.0, 0.0, 0.0, 0.0]
---
header: 
  seq: 47
  stamp: 
    secs: 5
    nsecs: 300000000
  frame_id: "imu_link"
orientation: 
  x: -0.34444762327928274
  y: -0.011956051740770253
  z: -0.0043639691343951474
  w: 0.938719256975918
orientation_covariance: [0.0, 0.0, 0.0, 0.0, 0.0, 0.0, 0.0, 0.0, 0.0]
angular_velocity: 
  x: -0.5924087969693387
  y: -0.0010951702070353037
  z: -0.004223499196542476
angular_velocity_covariance: [0.0, 0.0, 0.0, 0.0, 0.0, 0.0, 0.0, 0.0, 0.0]
linear_acceleration: 
  x: 0.37732048454588285
  y: 29.93136002738053
  z: 14.726979814582572
linear_acceleration_covariance: [0.0, 0.0, 0.0, 0.0, 0.0, 0.0, 0.0, 0.0, 0.0]
---
header: 
  seq: 48
  stamp: 
    secs: 5
    nsecs: 400000000
  frame_id: "imu_link"
orientation: 
  x: -0.4125760085164111
  y: -0.009538636073932552
  z: -0.004320221516985704
  w: 0.9108629904132453
orientation_covariance: [0.0, 0.0, 0.0, 0.0, 0.0, 0.0, 0.0, 0.0, 0.0]
angular_velocity: 
  x: 1.997188475896921
  y: 0.036351606272582306
  z: 0.04187870197890961
angular_velocity_covariance: [0.0, 0.0, 0.0, 0.0, 0.0, 0.0, 0.0, 0.0, 0.0]
linear_acceleration: 
  x: -0.2446582500723234
  y: -2.387854206472716
  z: -30.896523877125567
linear_acceleration_covariance: [0.0, 0.0, 0.0, 0.0, 0.0, 0.0, 0.0, 0.0, 0.0]
---
header: 
  seq: 49
  stamp: 
    secs: 5
    nsecs: 500000000
  frame_id: "imu_link"
orientation: 
  x: -0.3687090859028032
  y: -0.011106014979484479
  z: -0.0044069986489893775
  w: 0.9294680439729506
orientation_covariance: [0.0, 0.0, 0.0, 0.0, 0.0, 0.0, 0.0, 0.0, 0.0]
angular_velocity: 
  x: 7.210733947828087
  y: -0.05473759548344469
  z: -0.05282499788661496
angular_velocity_covariance: [0.0, 0.0, 0.0, 0.0, 0.0, 0.0, 0.0, 0.0, 0.0]
linear_acceleration: 
  x: 2.2833639255901206
  y: -291.37895345438955
  z: 214.4091089700318
linear_acceleration_covariance: [0.0, 0.0, 0.0, 0.0, 0.0, 0.0, 0.0, 0.0, 0.0]
---
header: 
  seq: 50
  stamp: 
    secs: 5
    nsecs: 600000000
  frame_id: "imu_link"
orientation: 
  x: -0.3118054590586752
  y: -0.013399217452257325
  z: -0.004397400886139148
  w: 0.950041304122259
orientation_covariance: [0.0, 0.0, 0.0, 0.0, 0.0, 0.0, 0.0, 0.0, 0.0]
angular_velocity: 
  x: -5.098225672573561
  y: -0.041269393586450195
  z: -0.03028744152907382
angular_velocity_covariance: [0.0, 0.0, 0.0, 0.0, 0.0, 0.0, 0.0, 0.0, 0.0]
linear_acceleration: 
  x: -0.09721142289394841
  y: 169.2289131455775
  z: -277.9006225747476
linear_acceleration_covariance: [0.0, 0.0, 0.0, 0.0, 0.0, 0.0, 0.0, 0.0, 0.0]
---
header: 
  seq: 51
  stamp: 
    secs: 5
    nsecs: 700000000
  frame_id: "imu_link"
orientation: 
  x: -0.2918856362525316
  y: -0.015209025903200583
  z: -0.004644026746911519
  w: 0.9563210203148861
orientation_covariance: [0.0, 0.0, 0.0, 0.0, 0.0, 0.0, 0.0, 0.0, 0.0]
angular_velocity: 
  x: 5.622663951942818
  y: -0.10113811084238203
  z: -0.06827505157967578
angular_velocity_covariance: [0.0, 0.0, 0.0, 0.0, 0.0, 0.0, 0.0, 0.0, 0.0]
linear_acceleration: 
  x: 1.4374729282718204
  y: -137.28767653185147
  z: 204.26603025364332
linear_acceleration_covariance: [0.0, 0.0, 0.0, 0.0, 0.0, 0.0, 0.0, 0.0, 0.0]
---
header: 
  seq: 52
  stamp: 
    secs: 5
    nsecs: 800000000
  frame_id: "imu_link"
orientation: 
  x: -0.21542291905368985
  y: -0.017424244166212178
  z: -0.0038459772541117867
  w: 0.9763578084496403
orientation_covariance: [0.0, 0.0, 0.0, 0.0, 0.0, 0.0, 0.0, 0.0, 0.0]
angular_velocity: 
  x: 3.1550269953917804
  y: -0.26249164672472025
  z: -0.12369024329499044
angular_velocity_covariance: [0.0, 0.0, 0.0, 0.0, 0.0, 0.0, 0.0, 0.0, 0.0]
linear_acceleration: 
  x: -0.052915313262894725
  y: -30.664033386519115
  z: 12.352885338519396
linear_acceleration_covariance: [0.0, 0.0, 0.0, 0.0, 0.0, 0.0, 0.0, 0.0, 0.0]
---
header: 
  seq: 53
  stamp: 
    secs: 5
    nsecs: 900000000
  frame_id: "imu_link"
orientation: 
  x: -0.31459240767222624
  y: -0.015365786894615258
  z: -0.0050984515307990735
  w: 0.9490887816321976
orientation_covariance: [0.0, 0.0, 0.0, 0.0, 0.0, 0.0, 0.0, 0.0, 0.0]
angular_velocity: 
  x: 1.0129847463333128
  y: 0.08415565588475966
  z: 0.06019613358830428
angular_velocity_covariance: [0.0, 0.0, 0.0, 0.0, 0.0, 0.0, 0.0, 0.0, 0.0]
linear_acceleration: 
  x: -0.00748970727691417
  y: -191.50323036139136
  z: 306.32162546668434
linear_acceleration_covariance: [0.0, 0.0, 0.0, 0.0, 0.0, 0.0, 0.0, 0.0, 0.0]
---
header: 
  seq: 54
  stamp: 
    secs: 6
    nsecs:         0
  frame_id: "imu_link"
orientation: 
  x: -0.31962817084975426
  y: -0.0136488717340386
  z: -0.0046069586287491365
  w: 0.9474335420660496
orientation_covariance: [0.0, 0.0, 0.0, 0.0, 0.0, 0.0, 0.0, 0.0, 0.0]
angular_velocity: 
  x: 6.53046550061069
  y: -0.08157194558417159
  z: -0.06297135433193982
angular_velocity_covariance: [0.0, 0.0, 0.0, 0.0, 0.0, 0.0, 0.0, 0.0, 0.0]
linear_acceleration: 
  x: 3.8304511284602727
  y: -38.65241610510646
  z: 83.36475761883491
linear_acceleration_covariance: [0.0, 0.0, 0.0, 0.0, 0.0, 0.0, 0.0, 0.0, 0.0]
---
header: 
  seq: 55
  stamp: 
    secs: 6
    nsecs: 100000000
  frame_id: "imu_link"
orientation: 
  x: -0.34080350665144904
  y: -0.01184025941087826
  z: -0.004281642433765028
  w: 0.9400502357051074
orientation_covariance: [0.0, 0.0, 0.0, 0.0, 0.0, 0.0, 0.0, 0.0, 0.0]
angular_velocity: 
  x: -2.248762278371977
  y: 0.08717680378296742
  z: 0.0676014718978358
angular_velocity_covariance: [0.0, 0.0, 0.0, 0.0, 0.0, 0.0, 0.0, 0.0, 0.0]
linear_acceleration: 
  x: 1.148361681345835
  y: 2.2562753161474784
  z: -96.35729189535274
linear_acceleration_covariance: [0.0, 0.0, 0.0, 0.0, 0.0, 0.0, 0.0, 0.0, 0.0]
---
header: 
  seq: 56
  stamp: 
    secs: 6
    nsecs: 200000000
  frame_id: "imu_link"
orientation: 
  x: -0.40405254308982447
  y: -0.009620931965307557
  z: -0.004251423192154476
  w: 0.914675300580269
orientation_covariance: [0.0, 0.0, 0.0, 0.0, 0.0, 0.0, 0.0, 0.0, 0.0]
angular_velocity: 
  x: 1.9067699097911017
  y: 0.018694192057109208
  z: 0.020868811094424417
angular_velocity_covariance: [0.0, 0.0, 0.0, 0.0, 0.0, 0.0, 0.0, 0.0, 0.0]
linear_acceleration: 
  x: -0.19076220206127933
  y: -70.41686225349619
  z: -9.882622079370162
linear_acceleration_covariance: [0.0, 0.0, 0.0, 0.0, 0.0, 0.0, 0.0, 0.0, 0.0]
---
header: 
  seq: 57
  stamp: 
    secs: 6
    nsecs: 300000000
  frame_id: "imu_link"
orientation: 
  x: -0.35964147785909767
  y: -0.011306096103548489
  z: -0.0043585894527902805
  w: 0.9330118875406698
orientation_covariance: [0.0, 0.0, 0.0, 0.0, 0.0, 0.0, 0.0, 0.0, 0.0]
angular_velocity: 
  x: 3.511766060428596
  y: -0.06461840299455061
  z: -0.058760356537047476
angular_velocity_covariance: [0.0, 0.0, 0.0, 0.0, 0.0, 0.0, 0.0, 0.0, 0.0]
linear_acceleration: 
  x: 1.903393442108506
  y: -184.97304192633501
  z: 77.32982707476994
linear_acceleration_covariance: [0.0, 0.0, 0.0, 0.0, 0.0, 0.0, 0.0, 0.0, 0.0]
---
header: 
  seq: 58
  stamp: 
    secs: 6
    nsecs: 400000000
  frame_id: "imu_link"
orientation: 
  x: -0.3386433347279921
  y: -0.013231156726953054
  z: -0.00476391351942942
  w: 0.940809722241406
orientation_covariance: [0.0, 0.0, 0.0, 0.0, 0.0, 0.0, 0.0, 0.0, 0.0]
angular_velocity: 
  x: 4.233918048944583
  y: -0.058760820109554024
  z: -0.04953834929837648
angular_velocity_covariance: [0.0, 0.0, 0.0, 0.0, 0.0, 0.0, 0.0, 0.0, 0.0]
linear_acceleration: 
  x: 0.8264520874389418
  y: -52.622671300858286
  z: 89.7445224082078
linear_acceleration_covariance: [0.0, 0.0, 0.0, 0.0, 0.0, 0.0, 0.0, 0.0, 0.0]
---
header: 
  seq: 59
  stamp: 
    secs: 6
    nsecs: 500000000
  frame_id: "imu_link"
orientation: 
  x: -0.27438778330484803
  y: -0.01528403291630194
  z: -0.004360266238982831
  w: 0.9614877694433718
orientation_covariance: [0.0, 0.0, 0.0, 0.0, 0.0, 0.0, 0.0, 0.0, 0.0]
angular_velocity: 
  x: 0.7053487265464148
  y: -0.004369447217503318
  z: -0.0013129979190703092
angular_velocity_covariance: [0.0, 0.0, 0.0, 0.0, 0.0, 0.0, 0.0, 0.0, 0.0]
linear_acceleration: 
  x: 0.151648493187596
  y: -5.121195727454579
  z: -14.24184178596591
linear_acceleration_covariance: [0.0, 0.0, 0.0, 0.0, 0.0, 0.0, 0.0, 0.0, 0.0]
---
header: 
  seq: 60
  stamp: 
    secs: 6
    nsecs: 600000000
  frame_id: "imu_link"
orientation: 
  x: -0.22312730840356784
  y: -0.017402409592920626
  z: -0.003985843552917652
  w: 0.9746258120099791
orientation_covariance: [0.0, 0.0, 0.0, 0.0, 0.0, 0.0, 0.0, 0.0, 0.0]
angular_velocity: 
  x: 0.7250570377458497
  y: -0.04382517257748712
  z: -0.02204572911171631
angular_velocity_covariance: [0.0, 0.0, 0.0, 0.0, 0.0, 0.0, 0.0, 0.0, 0.0]
linear_acceleration: 
  x: 0.8036212194219974
  y: 2.63999618636882
  z: 10.151400896438162
linear_acceleration_covariance: [0.0, 0.0, 0.0, 0.0, 0.0, 0.0, 0.0, 0.0, 0.0]
---
header: 
  seq: 61
  stamp: 
    secs: 6
    nsecs: 700000000
  frame_id: "imu_link"
orientation: 
  x: -0.29384720719185053
  y: -0.015370861591359813
  z: -0.004727391339320907
  w: 0.9557171167299526
orientation_covariance: [0.0, 0.0, 0.0, 0.0, 0.0, 0.0, 0.0, 0.0, 0.0]
angular_velocity: 
  x: -0.11809975341410094
  y: 0.049430106318908706
  z: 0.036686929904600644
angular_velocity_covariance: [0.0, 0.0, 0.0, 0.0, 0.0, 0.0, 0.0, 0.0, 0.0]
linear_acceleration: 
  x: 0.8313006584268268
  y: 7.29476010021328
  z: 29.861893229240675
linear_acceleration_covariance: [0.0, 0.0, 0.0, 0.0, 0.0, 0.0, 0.0, 0.0, 0.0]
---
header: 
  seq: 62
  stamp: 
    secs: 6
    nsecs: 800000000
  frame_id: "imu_link"
orientation: 
  x: -0.3151031336976656
  y: -0.013559901202054856
  z: -0.00450094631641343
  w: 0.9489498857661338
orientation_covariance: [0.0, 0.0, 0.0, 0.0, 0.0, 0.0, 0.0, 0.0, 0.0]
angular_velocity: 
  x: 1.2235608516162346
  y: 0.08632842988864461
  z: 0.06436889138942513
angular_velocity_covariance: [0.0, 0.0, 0.0, 0.0, 0.0, 0.0, 0.0, 0.0, 0.0]
linear_acceleration: 
  x: -1.2393525228958515
  y: -121.12000985622356
  z: 110.94235176660226
linear_acceleration_covariance: [0.0, 0.0, 0.0, 0.0, 0.0, 0.0, 0.0, 0.0, 0.0]
---
header: 
  seq: 63
  stamp: 
    secs: 6
    nsecs: 900000000
  frame_id: "imu_link"
orientation: 
  x: -0.38281222562822187
  y: -0.011411551920916417
  z: -0.004729303671812156
  w: 0.9237435845942873
orientation_covariance: [0.0, 0.0, 0.0, 0.0, 0.0, 0.0, 0.0, 0.0, 0.0]
angular_velocity: 
  x: 1.4202488443109915
  y: 0.03059018026699286
  z: 0.030761046338657425
angular_velocity_covariance: [0.0, 0.0, 0.0, 0.0, 0.0, 0.0, 0.0, 0.0, 0.0]
linear_acceleration: 
  x: -0.31681671420698354
  y: 38.73620363158637
  z: -6.829946439716709
linear_acceleration_covariance: [0.0, 0.0, 0.0, 0.0, 0.0, 0.0, 0.0, 0.0, 0.0]
---
header: 
  seq: 64
  stamp: 
    secs: 7
    nsecs:         0
  frame_id: "imu_link"
orientation: 
  x: -0.42934815303260865
  y: -0.009394189879762316
  z: -0.0044671097154472235
  w: 0.903079153571148
orientation_covariance: [0.0, 0.0, 0.0, 0.0, 0.0, 0.0, 0.0, 0.0, 0.0]
angular_velocity: 
  x: -2.3700402868959967
  y: 0.04676068642631319
  z: 0.0570615287359443
angular_velocity_covariance: [0.0, 0.0, 0.0, 0.0, 0.0, 0.0, 0.0, 0.0, 0.0]
linear_acceleration: 
  x: -2.5897815069518333
  y: 43.5945319277282
  z: -69.0124401893505
linear_acceleration_covariance: [0.0, 0.0, 0.0, 0.0, 0.0, 0.0, 0.0, 0.0, 0.0]
---
header: 
  seq: 65
  stamp: 
    secs: 7
    nsecs: 100000000
  frame_id: "imu_link"
orientation: 
  x: -0.38154408555255365
  y: -0.011211029090863937
  z: -0.004628085780896519
  w: 0.9242710665322129
orientation_covariance: [0.0, 0.0, 0.0, 0.0, 0.0, 0.0, 0.0, 0.0, 0.0]
angular_velocity: 
  x: 2.304792228764067
  y: -0.030108602617390436
  z: -0.02989609912272438
angular_velocity_covariance: [0.0, 0.0, 0.0, 0.0, 0.0, 0.0, 0.0, 0.0, 0.0]
linear_acceleration: 
  x: -0.14201654821301296
  y: -73.29896337332151
  z: 50.01384836802919
linear_acceleration_covariance: [0.0, 0.0, 0.0, 0.0, 0.0, 0.0, 0.0, 0.0, 0.0]
---
header: 
  seq: 66
  stamp: 
    secs: 7
    nsecs: 200000000
  frame_id: "imu_link"
orientation: 
  x: -0.32199017104061883
  y: -0.013517212434839304
  z: -0.004592435866360337
  w: 0.9466353702741293
orientation_covariance: [0.0, 0.0, 0.0, 0.0, 0.0, 0.0, 0.0, 0.0, 0.0]
angular_velocity: 
  x: -0.584124179841727
  y: 0.021681101104107495
  z: 0.01637702312981772
angular_velocity_covariance: [0.0, 0.0, 0.0, 0.0, 0.0, 0.0, 0.0, 0.0, 0.0]
linear_acceleration: 
  x: -0.23335197513474248
  y: 69.44097219075128
  z: -90.27671498674664
linear_acceleration_covariance: [0.0, 0.0, 0.0, 0.0, 0.0, 0.0, 0.0, 0.0, 0.0]
---
header: 
  seq: 67
  stamp: 
    secs: 7
    nsecs: 300000000
  frame_id: "imu_link"
orientation: 
  x: -0.2913562468125961
  y: -0.01504765304005524
  z: -0.004583055915761484
  w: 0.9564852853963499
orientation_covariance: [0.0, 0.0, 0.0, 0.0, 0.0, 0.0, 0.0, 0.0, 0.0]
angular_velocity: 
  x: 0.96554922800742
  y: 0.03587956032425474
  z: 0.025402873976290152
angular_velocity_covariance: [0.0, 0.0, 0.0, 0.0, 0.0, 0.0, 0.0, 0.0, 0.0]
linear_acceleration: 
  x: -0.2698203214584201
  y: 42.27598522438678
  z: -44.72428353457258
linear_acceleration_covariance: [0.0, 0.0, 0.0, 0.0, 0.0, 0.0, 0.0, 0.0, 0.0]
---
header: 
  seq: 68
  stamp: 
    secs: 7
    nsecs: 400000000
  frame_id: "imu_link"
orientation: 
  x: -0.22952240682868758
  y: -0.017498711529051632
  z: -0.0041305743913032334
  w: 0.9731372966922949
orientation_covariance: [0.0, 0.0, 0.0, 0.0, 0.0, 0.0, 0.0, 0.0, 0.0]
angular_velocity: 
  x: 2.7527233944783043
  y: -0.1462915300859824
  z: -0.11300838985885706
angular_velocity_covariance: [0.0, 0.0, 0.0, 0.0, 0.0, 0.0, 0.0, 0.0, 0.0]
linear_acceleration: 
  x: 0.30594877181011887
  y: -115.30019660443803
  z: 138.11664424729625
linear_acceleration_covariance: [0.0, 0.0, 0.0, 0.0, 0.0, 0.0, 0.0, 0.0, 0.0]
---
header: 
  seq: 69
  stamp: 
    secs: 7
    nsecs: 500000000
  frame_id: "imu_link"
orientation: 
  x: -0.29760664792347596
  y: -0.01516446424944506
  z: -0.004729272324101794
  w: 0.9545564185102231
orientation_covariance: [0.0, 0.0, 0.0, 0.0, 0.0, 0.0, 0.0, 0.0, 0.0]
angular_velocity: 
  x: 6.055046676563993
  y: 0.2556904581299617
  z: 0.17920790535723918
angular_velocity_covariance: [0.0, 0.0, 0.0, 0.0, 0.0, 0.0, 0.0, 0.0, 0.0]
linear_acceleration: 
  x: -0.8777926096181408
  y: -99.64421333967574
  z: 206.89002754724922
linear_acceleration_covariance: [0.0, 0.0, 0.0, 0.0, 0.0, 0.0, 0.0, 0.0, 0.0]
---
header: 
  seq: 70
  stamp: 
    secs: 7
    nsecs: 600000000
  frame_id: "imu_link"
orientation: 
  x: -0.2950438680962696
  y: -0.013457722063067978
  z: -0.004150127949354363
  w: 0.9553799150357246
orientation_covariance: [0.0, 0.0, 0.0, 0.0, 0.0, 0.0, 0.0, 0.0, 0.0]
angular_velocity: 
  x: 4.4520003043088
  y: 0.19118379716260467
  z: 0.1297231897738493
angular_velocity_covariance: [0.0, 0.0, 0.0, 0.0, 0.0, 0.0, 0.0, 0.0, 0.0]
linear_acceleration: 
  x: -8.701331940439367
  y: -267.2463916803795
  z: 196.41373977610203
linear_acceleration_covariance: [0.0, 0.0, 0.0, 0.0, 0.0, 0.0, 0.0, 0.0, 0.0]
---
header: 
  seq: 71
  stamp: 
    secs: 7
    nsecs: 700000000
  frame_id: "imu_link"
orientation: 
  x: -0.36984097581363257
  y: -0.011598386093523488
  z: -0.004615891264545777
  w: 0.9290112074658085
orientation_covariance: [0.0, 0.0, 0.0, 0.0, 0.0, 0.0, 0.0, 0.0, 0.0]
angular_velocity: 
  x: -10.921156034285541
  y: 0.13568529540784838
  z: 0.12738598262293865
angular_velocity_covariance: [0.0, 0.0, 0.0, 0.0, 0.0, 0.0, 0.0, 0.0, 0.0]
linear_acceleration: 
  x: -9.486996726633325
  y: 269.71378706678917
  z: -350.0821575829291
linear_acceleration_covariance: [0.0, 0.0, 0.0, 0.0, 0.0, 0.0, 0.0, 0.0, 0.0]
---
header: 
  seq: 72
  stamp: 
    secs: 7
    nsecs: 800000000
  frame_id: "imu_link"
orientation: 
  x: -0.42207308971180735
  y: -0.00959572904049986
  z: -0.004467374649452591
  w: 0.9065000118527586
orientation_covariance: [0.0, 0.0, 0.0, 0.0, 0.0, 0.0, 0.0, 0.0, 0.0]
angular_velocity: 
  x: -4.535208662293073
  y: 0.00939922699339699
  z: 0.012397602162670133
angular_velocity_covariance: [0.0, 0.0, 0.0, 0.0, 0.0, 0.0, 0.0, 0.0, 0.0]
linear_acceleration: 
  x: -0.8238502926209915
  y: 106.91980244509492
  z: -133.8277545732958
linear_acceleration_covariance: [0.0, 0.0, 0.0, 0.0, 0.0, 0.0, 0.0, 0.0, 0.0]
---
header: 
  seq: 73
  stamp: 
    secs: 7
    nsecs: 900000000
  frame_id: "imu_link"
orientation: 
  x: -0.4003830704376935
  y: -0.01099584074288189
  z: -0.004806276750903958
  w: 0.9162692770670835
orientation_covariance: [0.0, 0.0, 0.0, 0.0, 0.0, 0.0, 0.0, 0.0, 0.0]
angular_velocity: 
  x: 3.3719331486473427
  y: -0.0947727795344394
  z: -0.10111135461335569
angular_velocity_covariance: [0.0, 0.0, 0.0, 0.0, 0.0, 0.0, 0.0, 0.0, 0.0]
linear_acceleration: 
  x: 3.136060637141009
  y: -198.34286270007996
  z: 201.86669826817868
linear_acceleration_covariance: [0.0, 0.0, 0.0, 0.0, 0.0, 0.0, 0.0, 0.0, 0.0]
---
header: 
  seq: 74
  stamp: 
    secs: 8
    nsecs:         0
  frame_id: "imu_link"
orientation: 
  x: -0.34138641450703483
  y: -0.013076912432472878
  z: -0.0047514730770680325
  w: 0.9398200539756865
orientation_covariance: [0.0, 0.0, 0.0, 0.0, 0.0, 0.0, 0.0, 0.0, 0.0]
angular_velocity: 
  x: -0.24600776839988078
  y: 0.056583016595725656
  z: 0.04579735521659472
angular_velocity_covariance: [0.0, 0.0, 0.0, 0.0, 0.0, 0.0, 0.0, 0.0, 0.0]
linear_acceleration: 
  x: -4.706123847706015
  y: 123.47610343289739
  z: -117.56906019144094
linear_acceleration_covariance: [0.0, 0.0, 0.0, 0.0, 0.0, 0.0, 0.0, 0.0, 0.0]
---
header: 
  seq: 75
  stamp: 
    secs: 8
    nsecs: 100000000
  frame_id: "imu_link"
orientation: 
  x: -0.2901438431803286
  y: -0.014996289574266134
  z: -0.00454467345110908
  w: 0.9568547473398333
orientation_covariance: [0.0, 0.0, 0.0, 0.0, 0.0, 0.0, 0.0, 0.0, 0.0]
angular_velocity: 
  x: 2.370645849696064
  y: -0.009460677830636187
  z: -0.006402404858601558
angular_velocity_covariance: [0.0, 0.0, 0.0, 0.0, 0.0, 0.0, 0.0, 0.0, 0.0]
linear_acceleration: 
  x: 0.16135824610784066
  y: -92.66027057685318
  z: 111.89365196701957
linear_acceleration_covariance: [0.0, 0.0, 0.0, 0.0, 0.0, 0.0, 0.0, 0.0, 0.0]
---
header: 
  seq: 76
  stamp: 
    secs: 8
    nsecs: 200000000
  frame_id: "imu_link"
orientation: 
  x: -0.23477600765885134
  y: -0.017138851086956616
  z: -0.004136100344366618
  w: 0.9718895918185004
orientation_covariance: [0.0, 0.0, 0.0, 0.0, 0.0, 0.0, 0.0, 0.0, 0.0]
angular_velocity: 
  x: 1.291329918238407
  y: 0.11008281505232018
  z: 0.05344492449247011
angular_velocity_covariance: [0.0, 0.0, 0.0, 0.0, 0.0, 0.0, 0.0, 0.0, 0.0]
linear_acceleration: 
  x: -0.7634389478101349
  y: -132.271198387001
  z: 155.7674083579488
linear_acceleration_covariance: [0.0, 0.0, 0.0, 0.0, 0.0, 0.0, 0.0, 0.0, 0.0]
---
header: 
  seq: 77
  stamp: 
    secs: 8
    nsecs: 300000000
  frame_id: "imu_link"
orientation: 
  x: -0.25360893083895236
  y: -0.015604340698337951
  z: -0.004099635840632353
  w: 0.9671722740732738
orientation_covariance: [0.0, 0.0, 0.0, 0.0, 0.0, 0.0, 0.0, 0.0, 0.0]
angular_velocity: 
  x: -4.396916257712831
  y: 0.035419740725010335
  z: 0.024162678078632233
angular_velocity_covariance: [0.0, 0.0, 0.0, 0.0, 0.0, 0.0, 0.0, 0.0, 0.0]
linear_acceleration: 
  x: 0.9498460342770179
  y: 7.914304778378216
  z: -7.591492259944918
linear_acceleration_covariance: [0.0, 0.0, 0.0, 0.0, 0.0, 0.0, 0.0, 0.0, 0.0]
---
header: 
  seq: 78
  stamp: 
    secs: 8
    nsecs: 400000000
  frame_id: "imu_link"
orientation: 
  x: -0.33675020644898224
  y: -0.013368376201469679
  z: -0.004781239760406614
  w: 0.9414869753324565
orientation_covariance: [0.0, 0.0, 0.0, 0.0, 0.0, 0.0, 0.0, 0.0, 0.0]
angular_velocity: 
  x: -5.7858549437262035
  y: -0.0430701612056633
  z: -0.03431098478661726
angular_velocity_covariance: [0.0, 0.0, 0.0, 0.0, 0.0, 0.0, 0.0, 0.0, 0.0]
linear_acceleration: 
  x: 2.94796761067642
  y: -44.46773214435306
  z: -12.368746454945262
linear_acceleration_covariance: [0.0, 0.0, 0.0, 0.0, 0.0, 0.0, 0.0, 0.0, 0.0]
---
header: 
  seq: 79
  stamp: 
    secs: 8
    nsecs: 500000000
  frame_id: "imu_link"
orientation: 
  x: -0.3956098899231231
  y: -0.011533793403647467
  z: -0.004969860420977159
  w: 0.9183327757910703
orientation_covariance: [0.0, 0.0, 0.0, 0.0, 0.0, 0.0, 0.0, 0.0, 0.0]
angular_velocity: 
  x: 1.9848535576193183
  y: -0.04008994676346073
  z: -0.04406036584200933
angular_velocity_covariance: [0.0, 0.0, 0.0, 0.0, 0.0, 0.0, 0.0, 0.0, 0.0]
linear_acceleration: 
  x: 5.477305716804503
  y: -203.89552261666168
  z: 275.0945179789428
linear_acceleration_covariance: [0.0, 0.0, 0.0, 0.0, 0.0, 0.0, 0.0, 0.0, 0.0]
---
header: 
  seq: 80
  stamp: 
    secs: 8
    nsecs: 600000000
  frame_id: "imu_link"
orientation: 
  x: -0.43070253748408954
  y: -0.009474958992293055
  z: -0.004520045396966222
  w: 0.9024328886662266
orientation_covariance: [0.0, 0.0, 0.0, 0.0, 0.0, 0.0, 0.0, 0.0, 0.0]
angular_velocity: 
  x: -2.604986955778918
  y: 0.11326804073663713
  z: 0.13508627420945193
angular_velocity_covariance: [0.0, 0.0, 0.0, 0.0, 0.0, 0.0, 0.0, 0.0, 0.0]
linear_acceleration: 
  x: -2.481295010706914
  y: -28.801650618103956
  z: 43.17205532313255
linear_acceleration_covariance: [0.0, 0.0, 0.0, 0.0, 0.0, 0.0, 0.0, 0.0, 0.0]
---
header: 
  seq: 81
  stamp: 
    secs: 8
    nsecs: 700000000
  frame_id: "imu_link"
orientation: 
  x: -0.3711961341079922
  y: -0.011423567571626126
  z: -0.0045822837708745226
  w: 0.928472904721867
orientation_covariance: [0.0, 0.0, 0.0, 0.0, 0.0, 0.0, 0.0, 0.0, 0.0]
angular_velocity: 
  x: 2.711509381552829
  y: -0.8175044319289296
  z: -0.7904377461972729
angular_velocity_covariance: [0.0, 0.0, 0.0, 0.0, 0.0, 0.0, 0.0, 0.0, 0.0]
linear_acceleration: 
  x: 50.82420115465395
  y: -8.308766744226842
  z: -18.67587796722121
linear_acceleration_covariance: [0.0, 0.0, 0.0, 0.0, 0.0, 0.0, 0.0, 0.0, 0.0]
---
header: 
  seq: 82
  stamp: 
    secs: 8
    nsecs: 800000000
  frame_id: "imu_link"
orientation: 
  x: -0.32302823780140766
  y: -0.014205295325425386
  z: -0.004838897515641531
  w: 0.9462703378202594
orientation_covariance: [0.0, 0.0, 0.0, 0.0, 0.0, 0.0, 0.0, 0.0, 0.0]
angular_velocity: 
  x: -0.9372710846502952
  y: -0.07500536768783897
  z: -0.03901048649464463
angular_velocity_covariance: [0.0, 0.0, 0.0, 0.0, 0.0, 0.0, 0.0, 0.0, 0.0]
linear_acceleration: 
  x: -25.224543603623424
  y: 13.901789673552907
  z: -75.36459285305877
linear_acceleration_covariance: [0.0, 0.0, 0.0, 0.0, 0.0, 0.0, 0.0, 0.0, 0.0]
---
header: 
  seq: 83
  stamp: 
    secs: 8
    nsecs: 900000000
  frame_id: "imu_link"
orientation: 
  x: -0.2572648691030147
  y: -0.01609893991445252
  z: -0.004267085382582233
  w: 0.9661973935182073
orientation_covariance: [0.0, 0.0, 0.0, 0.0, 0.0, 0.0, 0.0, 0.0, 0.0]
angular_velocity: 
  x: -4.140360945552618
  y: 0.19650422237150345
  z: 0.10890270369267085
angular_velocity_covariance: [0.0, 0.0, 0.0, 0.0, 0.0, 0.0, 0.0, 0.0, 0.0]
linear_acceleration: 
  x: 5.257861620052511
  y: 64.26320622533662
  z: -9.30175145783077
linear_acceleration_covariance: [0.0, 0.0, 0.0, 0.0, 0.0, 0.0, 0.0, 0.0, 0.0]
---
header: 
  seq: 84
  stamp: 
    secs: 9
    nsecs:         0
  frame_id: "imu_link"
orientation: 
  x: -0.22096338675654545
  y: -0.01716958063312494
  z: -0.0038823308460181165
  w: 0.9751232305309735
orientation_covariance: [0.0, 0.0, 0.0, 0.0, 0.0, 0.0, 0.0, 0.0, 0.0]
angular_velocity: 
  x: 5.303414156627107
  y: 0.12095355083933347
  z: 0.062135900482945296
angular_velocity_covariance: [0.0, 0.0, 0.0, 0.0, 0.0, 0.0, 0.0, 0.0, 0.0]
linear_acceleration: 
  x: -1.6634552204118036
  y: -216.66371849748487
  z: 254.49205680072734
linear_acceleration_covariance: [0.0, 0.0, 0.0, 0.0, 0.0, 0.0, 0.0, 0.0, 0.0]
---
header: 
  seq: 85
  stamp: 
    secs: 9
    nsecs: 100000000
  frame_id: "imu_link"
orientation: 
  x: -0.2941772463834368
  y: -0.015588705402038383
  z: -0.004801779481003571
  w: 0.9556116799662732
orientation_covariance: [0.0, 0.0, 0.0, 0.0, 0.0, 0.0, 0.0, 0.0, 0.0]
angular_velocity: 
  x: 4.6827820341783495
  y: -0.4569525644633169
  z: -0.31707170587617944
angular_velocity_covariance: [0.0, 0.0, 0.0, 0.0, 0.0, 0.0, 0.0, 0.0, 0.0]
linear_acceleration: 
  x: 1.9438087313734316
  y: -361.80364164690303
  z: 488.63259351809717
linear_acceleration_covariance: [0.0, 0.0, 0.0, 0.0, 0.0, 0.0, 0.0, 0.0, 0.0]
---
header: 
  seq: 86
  stamp: 
    secs: 9
    nsecs: 200000000
  frame_id: "imu_link"
orientation: 
  x: -0.332067715331171
  y: -0.01342122767511566
  z: -0.004726505331728307
  w: 0.943148219120292
orientation_covariance: [0.0, 0.0, 0.0, 0.0, 0.0, 0.0, 0.0, 0.0, 0.0]
angular_velocity: 
  x: 5.677114987883797
  y: 0.022569659343006473
  z: 0.017848733855943356
angular_velocity_covariance: [0.0, 0.0, 0.0, 0.0, 0.0, 0.0, 0.0, 0.0, 0.0]
linear_acceleration: 
  x: -0.4626042752486085
  y: -117.44884110978646
  z: 187.98383853682012
linear_acceleration_covariance: [0.0, 0.0, 0.0, 0.0, 0.0, 0.0, 0.0, 0.0, 0.0]
---
header: 
  seq: 87
  stamp: 
    secs: 9
    nsecs: 300000000
  frame_id: "imu_link"
orientation: 
  x: -0.361267685436894
  y: -0.011478549764080453
  z: -0.004447264725197227
  w: 0.9323808900823991
orientation_covariance: [0.0, 0.0, 0.0, 0.0, 0.0, 0.0, 0.0, 0.0, 0.0]
angular_velocity: 
  x: -2.6678595832205
  y: 0.09427130590510223
  z: 0.08568233820029443
angular_velocity_covariance: [0.0, 0.0, 0.0, 0.0, 0.0, 0.0, 0.0, 0.0, 0.0]
linear_acceleration: 
  x: -3.40166605985023
  y: 148.81636944709942
  z: -210.88304610318644
linear_acceleration_covariance: [0.0, 0.0, 0.0, 0.0, 0.0, 0.0, 0.0, 0.0, 0.0]
---
header: 
  seq: 88
  stamp: 
    secs: 9
    nsecs: 400000000
  frame_id: "imu_link"
orientation: 
  x: -0.4418594699517622
  y: -0.009384360979933391
  z: -0.004620390787746001
  w: 0.8970232965603038
orientation_covariance: [0.0, 0.0, 0.0, 0.0, 0.0, 0.0, 0.0, 0.0, 0.0]
angular_velocity: 
  x: 0.10180868438776397
  y: 0.019689682565113817
  z: 0.025774712612064217
angular_velocity_covariance: [0.0, 0.0, 0.0, 0.0, 0.0, 0.0, 0.0, 0.0, 0.0]
linear_acceleration: 
  x: -0.2659819617140574
  y: 89.84933311779454
  z: -22.253187320645264
linear_acceleration_covariance: [0.0, 0.0, 0.0, 0.0, 0.0, 0.0, 0.0, 0.0, 0.0]
---
header: 
  seq: 89
  stamp: 
    secs: 9
    nsecs: 500000000
  frame_id: "imu_link"
orientation: 
  x: -0.3854229985967949
  y: -0.011096809170359172
  z: -0.004636507300837714
  w: 0.9226616258298277
orientation_covariance: [0.0, 0.0, 0.0, 0.0, 0.0, 0.0, 0.0, 0.0, 0.0]
angular_velocity: 
  x: 9.218216309251483
  y: -0.08486727240370916
  z: -0.08704562742166108
angular_velocity_covariance: [0.0, 0.0, 0.0, 0.0, 0.0, 0.0, 0.0, 0.0, 0.0]
linear_acceleration: 
  x: 3.487893702110831
  y: -220.40757967671294
  z: 238.01809582251485
linear_acceleration_covariance: [0.0, 0.0, 0.0, 0.0, 0.0, 0.0, 0.0, 0.0, 0.0]
---
header: 
  seq: 90
  stamp: 
    secs: 9
    nsecs: 600000000
  frame_id: "imu_link"
orientation: 
  x: -0.31170245226315885
  y: -0.013311858718982826
  z: -0.004366374127781908
  w: 0.9500764761047161
orientation_covariance: [0.0, 0.0, 0.0, 0.0, 0.0, 0.0, 0.0, 0.0, 0.0]
angular_velocity: 
  x: 4.364506391138494
  y: -0.03896074744455425
  z: -0.028663227612902898
angular_velocity_covariance: [0.0, 0.0, 0.0, 0.0, 0.0, 0.0, 0.0, 0.0, 0.0]
linear_acceleration: 
  x: -0.15493600057040635
  y: -29.8357468324327
  z: -31.5938504803246
linear_acceleration_covariance: [0.0, 0.0, 0.0, 0.0, 0.0, 0.0, 0.0, 0.0, 0.0]
---
header: 
  seq: 91
  stamp: 
    secs: 9
    nsecs: 700000000
  frame_id: "imu_link"
orientation: 
  x: -0.2667432595039032
  y: -0.015454868327346093
  z: -0.004263530965970381
  w: 0.963634268204447
orientation_covariance: [0.0, 0.0, 0.0, 0.0, 0.0, 0.0, 0.0, 0.0, 0.0]
angular_velocity: 
  x: 0.5491936506298282
  y: -0.09200354450549245
  z: -0.06921443571113642
angular_velocity_covariance: [0.0, 0.0, 0.0, 0.0, 0.0, 0.0, 0.0, 0.0, 0.0]
linear_acceleration: 
  x: 0.5106021894438647
  y: -1.9999262643991171
  z: -20.64791761968271
linear_acceleration_covariance: [0.0, 0.0, 0.0, 0.0, 0.0, 0.0, 0.0, 0.0, 0.0]
---
header: 
  seq: 92
  stamp: 
    secs: 9
    nsecs: 800000000
  frame_id: "imu_link"
orientation: 
  x: -0.2256634598410507
  y: -0.017359288399517888
  z: -0.00402087872947316
  w: 0.9740423453490469
orientation_covariance: [0.0, 0.0, 0.0, 0.0, 0.0, 0.0, 0.0, 0.0, 0.0]
angular_velocity: 
  x: 3.4557785598558968
  y: 0.020272180301481816
  z: 0.013987622678895143
angular_velocity_covariance: [0.0, 0.0, 0.0, 0.0, 0.0, 0.0, 0.0, 0.0, 0.0]
linear_acceleration: 
  x: -1.0013508080341444
  y: -17.8576647574536
  z: 20.191281145177317
linear_acceleration_covariance: [0.0, 0.0, 0.0, 0.0, 0.0, 0.0, 0.0, 0.0, 0.0]
---
header: 
  seq: 93
  stamp: 
    secs: 9
    nsecs: 900000000
  frame_id: "imu_link"
orientation: 
  x: -0.30105759257444376
  y: -0.015384964984599351
  z: -0.004859182827133119
  w: 0.9534694631439201
orientation_covariance: [0.0, 0.0, 0.0, 0.0, 0.0, 0.0, 0.0, 0.0, 0.0]
angular_velocity: 
  x: -0.21657368508159563
  y: 0.04243577421905169
  z: 0.030938542019884933
angular_velocity_covariance: [0.0, 0.0, 0.0, 0.0, 0.0, 0.0, 0.0, 0.0, 0.0]
linear_acceleration: 
  x: 0.6442676930408964
  y: -146.78679172489794
  z: 207.1028061439
linear_acceleration_covariance: [0.0, 0.0, 0.0, 0.0, 0.0, 0.0, 0.0, 0.0, 0.0]
---
header: 
  seq: 94
  stamp: 
    secs: 10
    nsecs:         0
  frame_id: "imu_link"
orientation: 
  x: -0.32889658066701366
  y: -0.013489856227363548
  z: -0.0046996365127138845
  w: 0.9442578971981969
orientation_covariance: [0.0, 0.0, 0.0, 0.0, 0.0, 0.0, 0.0, 0.0, 0.0]
angular_velocity: 
  x: 4.458475113375798
  y: 0.10467667840302672
  z: 0.08296860951712312
angular_velocity_covariance: [0.0, 0.0, 0.0, 0.0, 0.0, 0.0, 0.0, 0.0, 0.0]
linear_acceleration: 
  x: -3.9478778506584233
  y: -74.6690839320167
  z: 127.25530017606397
linear_acceleration_covariance: [0.0, 0.0, 0.0, 0.0, 0.0, 0.0, 0.0, 0.0, 0.0]
---
header: 
  seq: 95
  stamp: 
    secs: 10
    nsecs: 100000000
  frame_id: "imu_link"
orientation: 
  x: -0.37826421188913395
  y: -0.011363835481386128
  z: -0.004644135536574554
  w: 0.9256162710606173
orientation_covariance: [0.0, 0.0, 0.0, 0.0, 0.0, 0.0, 0.0, 0.0, 0.0]
angular_velocity: 
  x: -4.4014965696249675
  y: 0.04987404068113371
  z: 0.04870309081018287
angular_velocity_covariance: [0.0, 0.0, 0.0, 0.0, 0.0, 0.0, 0.0, 0.0, 0.0]
linear_acceleration: 
  x: -1.0276004713802447
  y: 85.58623572727849
  z: -128.15442510706714
linear_acceleration_covariance: [0.0, 0.0, 0.0, 0.0, 0.0, 0.0, 0.0, 0.0, 0.0]
---
header: 
  seq: 96
  stamp: 
    secs: 10
    nsecs: 200000000
  frame_id: "imu_link"
orientation: 
  x: -0.4269553817280806
  y: -0.009531228194453688
  z: -0.0045000116444326235
  w: 0.9042112627023257
orientation_covariance: [0.0, 0.0, 0.0, 0.0, 0.0, 0.0, 0.0, 0.0, 0.0]
angular_velocity: 
  x: -2.9761028891310417
  y: 0.02323793220079281
  z: 0.028885496568063197
angular_velocity_covariance: [0.0, 0.0, 0.0, 0.0, 0.0, 0.0, 0.0, 0.0, 0.0]
linear_acceleration: 
  x: -0.09747830882809394
  y: 26.07086387363352
  z: -41.30672533035094
linear_acceleration_covariance: [0.0, 0.0, 0.0, 0.0, 0.0, 0.0, 0.0, 0.0, 0.0]
---
header: 
  seq: 97
  stamp: 
    secs: 10
    nsecs: 300000000
